{"_id":593123,"description":"圣约瑟夫教堂是一座很具现代化的教堂。法系的天主教一向有着推崇奇迹的思想，据说安德烈修士以圣约瑟夫教堂内的灯油治愈了很多身残疾病的人们，那段时期常有众多的人们来到这里，时间长为30年之久。因为之后人们得知其灯油有着神奇的疗效，并发起众人出钱出力建起了圣约瑟夫教堂。圣约瑟夫教堂1924年建造，1965年完工。教堂总体来说体积非常之大，令人震撼，同时引来很多来自世界各地的圣约瑟夫教堂旅游的光临。但是，圣约瑟夫教堂内部很质朴，很简单。其内部拥有5811个管子风琴，每天都会走出典雅悠扬的乐声，其中圣约瑟夫教堂博物馆中安德烈修士的心藏是最让人惊奇的，也是经典的圣约瑟夫教堂景点了。","latitude":22.277483,"longitude":114.158005,"rating":8,"phone_number":"+852 2522 3992","address":"花园道37号","name":"圣约瑟夫教堂","location":["半山区","中环","香港岛","中区"],"type":["景点与地标"],"photo":"https://media-cdn.tripadvisor.com/media/photo-m/1280/14/c7/1d/ed/caption.jpg"}
{"_id":5960770,"description":null,"latitude":22.289246,"longitude":114.21917,"rating":8,"phone_number":"+852 2367 7821","address":"鰂鱼涌公园","name":"葛量洪号灭火轮展览馆","location":["东区","太古城东","香港岛"],"type":["博物馆"],"photo":"https://media-cdn.tripadvisor.com/media/photo-o/0f/7b/6b/74/photo2jpg.jpg"}
{"_id":1675239,"description":null,"latitude":22.310497,"longitude":113.918076,"rating":8,"phone_number":"+852 3559 1070","address":"国际机场二号客运大楼6楼","name":"4D超立体巨幕影馆","location":["新界","离岛","东涌"],"type":["音乐会与演出"],"photo":"https://media-cdn.tripadvisor.com/media/photo-o/0b/d1/88/30/4d.jpg"}
{"_id":3363449,"description":null,"latitude":22.371092,"longitude":114.11851,"rating":7,"phone_number":"+852 2940 7070","address":"荃湾众安街68号","name":"荃湾城市中心二期(千色)","location":["新界","荃湾"],"type":["购物"],"photo":"https://media-cdn.tripadvisor.com/media/photo-o/14/98/93/f5/20180912-201317-largejpg.jpg"}
{"_id":4354591,"description":null,"latitude":22.277365,"longitude":114.16228,"rating":7,"phone_number":"+852 2521 5041","address":"中环公园内 Central District","name":"霍士杰温室","location":["中区","中环","香港岛"],"type":["自然与公园"],"photo":"https://media-cdn.tripadvisor.com/media/photo-o/06/23/e4/81/the-forsgate-conservatory.jpg"}
{"_id":3459846,"description":null,"latitude":22.286352,"longitude":114.224075,"rating":8,"phone_number":"+852 2513 1103","address":"鲤鱼门","name":"三家村","location":["东区","香港岛","鲤景湾"],"type":["景点与地标"],"photo":"https://media-cdn.tripadvisor.com/media/photo-o/10/4a/e2/89/caption.jpg"}
{"_id":7022751,"description":null,"latitude":22.329725,"longitude":114.22083,"rating":8,"phone_number":"+852 2342 2241","address":"观塘新清水湾道71号","name":"佐敦谷公园","location":["九龙","观塘区"],"type":["自然与公园"],"photo":"https://media-cdn.tripadvisor.com/media/photo-o/15/af/db/ec/img-20181210-155140-largejpg.jpg"}
{"_id":5498037,"description":"「香港电车文化馆」,于2013年10月建立,是我们作为庆祝「香港电车有限公司」成立110周年纪念的主要项目,亦是未来对构建香港交通博物馆的一份期望。本馆除展示香港和世界各国有关电车(又称 有轨电车)方面的历史、藏品和资料外,还对电车保育、改革以及可持续发展的相关资料进行了保存和调查研究。 围绕香港电车系统的变迁、以及对车辆设备及组件进行实物展出,阐述了各个不同时期的背景,使「香港电车文化馆」同时成为香港首间以电车为主题的概念展馆","latitude":22.27027,"longitude":114.15006,"rating":8,"phone_number":"+852 2849 4113","address":"山顶道118号山顶广场2楼18号 山頂道118號山頂廣場2樓5-7號","name":"香港电车文化馆","location":["山顶","中区","香港岛"],"type":["博物馆"],"photo":"https://media-cdn.tripadvisor.com/media/photo-o/07/75/2b/37/caption.jpg"}
{"_id":3345905,"description":null,"latitude":22.424246,"longitude":114.23168,"rating":7,"phone_number":"+852 2643 9110","address":"马鞍山鞍诚街8,18及28号","name":"新港城中心","location":["新界","马鞍山","沙田"],"type":["购物"],"photo":"https://media-cdn.tripadvisor.com/media/photo-o/02/c1/7f/4d/sunshine-city-plaza.jpg"}
{"_id":8514104,"description":null,"latitude":22.28047,"longitude":114.15496,"rating":9,"phone_number":"+852 2810 1208","address":"中环云咸街52号G/F","name":"Opera Gallery","location":["中区","中环","香港岛"],"type":["购物","博物馆"],"photo":"https://media-cdn.tripadvisor.com/media/photo-o/08/a8/93/8f/teddy-bear-made-up-of.jpg"}
{"_id":2207680,"description":null,"latitude":22.337427,"longitude":114.174126,"rating":7,"phone_number":"+852 2844 3588","address":"九龙塘达之路80号又一城地面高层 80 Tat Chee Avenue, Kowloon Tong","name":"欢天雪地溜冰场","location":["深水埗区","九龙"],"type":["休闲与游戏"],"photo":"https://media-cdn.tripadvisor.com/media/photo-o/01/f1/a0/5f/ice-skating-at-festival.jpg"}
{"_id":17367037,"description":null,"latitude":22.302975,"longitude":114.18265,"rating":5,"phone_number":"+852 3167 7900","address":"No.6 Metropolis Drive, Hunghom, Kowloon","name":"Fortune Metropolis","location":["九龙","油尖旺区"],"type":["购物"],"photo":"https://media-cdn.tripadvisor.com/media/photo-o/17/47/f2/ac/fortune-metropolis.jpg"}
{"_id":10195997,"description":null,"latitude":22.425158,"longitude":114.22781,"rating":5,"phone_number":"+852 2643 6332","address":"新界马鞍山鞍骏街15号","name":"雅涛居","location":["新界","沙田"],"type":["购物"],"photo":"https://media-cdn.tripadvisor.com/media/photo-o/0b/a9/f0/7f/this-shopping-center.jpg"}
{"_id":6535749,"description":null,"latitude":22.28483,"longitude":114.14964,"rating":9,"phone_number":"+852 2234 6711","address":"30 Upper Lascar Row Sheung Wan","name":"The Popsy Room","location":["上环","中区","香港岛"],"type":["景点与地标"],"photo":"https://media-cdn.tripadvisor.com/media/photo-o/11/13/fc/6a/cok-guzel.jpg"}
{"_id":6873090,"description":null,"latitude":22.298391,"longitude":114.17194,"rating":7,"phone_number":"+852 2788 5968","address":"柯士甸道22号九龙公园","name":"香港漫画星光大道","location":["尖沙咀","九龙","油尖旺区"],"type":["博物馆"],"photo":"https://media-cdn.tripadvisor.com/media/photo-o/0a/60/8f/e9/access-from-nathan-road.jpg"}
{"_id":1675241,"description":null,"latitude":22.316538,"longitude":113.9374,"rating":8,"phone_number":"+852 3559 1070","address":"国际机场二号客运大楼翔天廊6楼","name":"香港航空探知馆","location":["新界","离岛","东涌"],"type":["博物馆"],"photo":"https://media-cdn.tripadvisor.com/media/photo-o/07/47/fe/c0/caption.jpg"}
{"_id":593138,"description":"三栋屋博物馆现在已经成为了法定的古迹。三栋屋博物馆在已经有200多年的历史的围村内，围村内部是由陈氏家族的一位祖先兴建的。博物馆经过了改建成的民俗博物馆，在1987年开放于市民参观。三栋屋博物馆开设了专门的展览同时也反映了早期的荃湾历史以及乡民生活的物品，而且会按照每家不同的四季生活布置。三栋屋博物馆真实的反映了中国南方农村的生活场景，会有很多游人来到这里体验到农村淳朴的生活。每一个来到博物馆的人都深刻的体会到，无论是沉浸在的农村风气还是这里建筑独特的风格都会使您深感新界围村之典范。三栋屋博物馆详细介绍：三栋屋博物馆其实是座由围墙固防起来的客族村落，它是由个相连的大厅所组成，而这三个大厅则是此村落的生活核心。之所以称为三栋屋，是因为这座三房屋分别出三支大主梁所支撑。供奉祖先的大厅座落在房子的最前端，装潢得十分华丽，厅中的装饰布置已经过修复，且色泽鲜艳恰如原貌。另两座厅堂则较为自然质朴，适合作为淳朴居民日常生活作息的中心。","latitude":22.372084,"longitude":114.12011,"rating":8,"phone_number":"+852 2411 2001","address":"荃湾古屋里2号","name":"三栋屋博物馆","location":["新界","荃湾"],"type":["博物馆"],"photo":"https://media-cdn.tripadvisor.com/media/photo-o/05/3f/f3/34/caption.jpg"}
{"_id":10020359,"description":null,"latitude":22.245724,"longitude":114.17608,"rating":9,"phone_number":"+852 3923 2323","address":"黃竹坑道180號 海洋公園","name":"海洋公園哈囉喂全日祭","location":["海湾","香港岛","南区"],"type":["活动"],"photo":"https://media-cdn.tripadvisor.com/media/photo-o/0d/88/96/11/20161016-141200-largejpg.jpg"}
{"_id":4492173,"description":null,"latitude":22.308025,"longitude":114.259865,"rating":8,"phone_number":"+852 3543 1273","address":"新界将军澳唐贤街9号","name":"PopCorn商场","location":["新界","西贡","将军澳"],"type":["购物"],"photo":"https://media-cdn.tripadvisor.com/media/photo-m/1280/17/68/68/d9/the-entrance-of-popcorn.jpg"}
{"_id":8380142,"description":null,"latitude":22.295504,"longitude":114.17235,"rating":7,"phone_number":"+852 2833 8338","address":"尖沙咀弥敦道20号","name":"崇光百货 (尖沙咀)","location":["尖沙咀","九龙","油尖旺区"],"type":["购物"],"photo":"https://media-cdn.tripadvisor.com/media/photo-o/14/78/d7/46/20180905-173522-largejpg.jpg"}
{"_id":2168820,"description":"DFS旗下香港T广场广东道店是DFS集团在香港规模最大的店铺，地处尖沙咀的繁华购物区，临近地铁站和多家香港顶级酒店及餐厅。在店内可选购国际顶尖品牌和产品，包括美妆及香水、时装及配饰和腕表及珠宝等。“T广场”是DFS集团致力于在市区地段为旅行者提供顶级奢华品牌、一流服务和流畅购物体验的环球免税店。","latitude":22.29662,"longitude":114.16928,"rating":7,"phone_number":"+852 2302 6888","address":"尖沙咀广东道28号 新太阳广场","name":"DFS旗下香港T广场广东道店","location":["尖沙咀","九龙","油尖旺区"],"type":["购物"],"photo":"https://media-cdn.tripadvisor.com/media/photo-w/0c/41/92/61/watches.jpg"}
{"_id":2004047,"description":null,"latitude":22.42327,"longitude":114.13501,"rating":9,"phone_number":"+852 2498 9326","address":"荃湾区大帽山","name":"大帽山郊野公园","location":["新界","大埔"],"type":["自然与公园"],"photo":"https://media-cdn.tripadvisor.com/media/photo-o/11/1f/3e/66/p-20171022-115545-largejpg.jpg"}
{"_id":4496394,"description":null,"latitude":22.28805,"longitude":114.15174,"rating":7,"phone_number":"+852 2857 8998","address":"上环干诺道中168-200号","name":"信德中心商场","location":["上环","中区","香港岛"],"type":["购物"],"photo":"https://media-cdn.tripadvisor.com/media/photo-m/1280/13/9b/ee/d4/caption.jpg"}
{"_id":2297249,"description":null,"latitude":22.30046,"longitude":114.16815,"rating":7,"phone_number":"+852 3119 0288","address":"九龙广东道33号","name":"中港城","location":["尖沙咀","九龙","油尖旺区"],"type":["购物"],"photo":"https://media-cdn.tripadvisor.com/media/photo-o/0d/8d/f5/48/china-hong-kong-city.jpg"}
{"_id":537992,"description":null,"latitude":22.28132,"longitude":114.18908,"rating":8,"phone_number":"+852 2723 6232","address":"铜锣湾维多利亚公园","name":"香港花展","location":["湾仔／铜锣湾","维多利亚公园","香港岛"],"type":["其它"],"photo":"https://media-cdn.tripadvisor.com/media/photo-o/0e/bc/da/d3/caption.jpg"}
{"_id":8820313,"description":"这场大型动漫站源于一年一度香港书展的漫画书分展。 漫画书分展很快吸纳了动漫和电玩游戏，从而迅速成长为独立的盛会。 现在有成千上万的游客涌入香港动漫电玩节，参加角色扮演和电玩游戏比赛，观看新艺术并尝试即将发行的动漫、漫画书和电玩游戏。 即使您只是一个随看随玩的动漫电玩迷，单单看着选手把精心制作的服饰拼穿在身上也别有一番趣味。","latitude":22.284367,"longitude":114.17243,"rating":8,"phone_number":"+852 2344 0415","address":"湾仔博览道1号会议展览中心","name":"香港动漫电玩节","location":["湾仔／铜锣湾","香港岛","修顿球场"],"type":["活动"],"photo":"https://media-cdn.tripadvisor.com/media/photo-m/1280/14/2a/d3/96/caption.jpg"}
{"_id":2004053,"description":null,"latitude":22.278654,"longitude":114.15388,"rating":9,"phone_number":"+852 2522 8212","address":"坚道16号","name":"天主教圣母无原罪主教座堂","location":["中区","半山区","香港岛"],"type":["景点与地标"],"photo":"https://media-cdn.tripadvisor.com/media/photo-m/1280/14/cb/15/de/caption.jpg"}
{"_id":10059580,"description":null,"latitude":22.38233,"longitude":114.27411,"rating":8,"phone_number":"+852 2394 1538","address":"西贡海滨公园","name":"火山探知馆","location":["新界","西贡"],"type":["博物馆"],"photo":"https://media-cdn.tripadvisor.com/media/photo-o/0f/33/c6/c6/discovery-centre.jpg"}
{"_id":14920833,"description":"于20世纪初建成的元洲仔自然环境保护研究中心，为前新界政务司官邸，历史悠久，并于1983年被列为法定古迹。这里是超过140种植物的家，从蕨类到大树，既有来自本地，也有外来物种。现为世界自然基金会的教育及保育研究中心，服务大众，推广教育及文化遗产。每年均设有年度开放日。同时定期有针对学校及制服团体的参观活动。我们亦局部开放元洲仔自然环境保护研究中心予公众。","latitude":22.44579,"longitude":114.17891,"rating":9,"phone_number":"+852 2526 1011","address":"Island House Lane, Tai Po, New Territories Island House Conservation Studies Centre","name":"元洲仔自然环境保护研究中心","location":["新界","大埔"],"type":["自然与公园"],"photo":"https://media-cdn.tripadvisor.com/media/photo-m/1280/14/34/b5/f7/photo0jpg.jpg"}
{"_id":12907122,"description":null,"latitude":22.212425,"longitude":114.027855,"rating":9,"phone_number":"+852 2981 0663","address":"长洲","name":"长洲玉虚宫","location":["新界","离岛","长洲"],"type":["景点与地标"],"photo":"https://media-cdn.tripadvisor.com/media/photo-o/11/33/7d/07/photo0jpg.jpg"}
{"_id":1806376,"description":null,"latitude":22.28265,"longitude":114.1279,"rating":7,"phone_number":"+852 2258 9558","address":"坚尼地城卑路乍街8号西宝城1楼121号","name":"纷松 (坚尼地城)","location":["坚尼地城 及 摩星岭","西环","香港岛","西区"],"type":["休闲与游戏","自然与公园"],"photo":"https://media-cdn.tripadvisor.com/media/photo-o/05/56/43/2f/caption.jpg"}
{"_id":12970875,"description":null,"latitude":22.282001,"longitude":114.14863,"rating":8,"phone_number":"+852 2801 5442","address":"罗便臣道70号","name":"犹太教莉亚堂","location":["中区","香港岛"],"type":["景点与地标"],"photo":"https://media-cdn.tripadvisor.com/media/photo-m/1280/14/5b/3a/ab/closed-gate.jpg"}
{"_id":7892357,"description":null,"latitude":22.28088,"longitude":114.15313,"rating":10,"phone_number":"+852 2413 0028","address":"27 Old Bailey Street Shop n.6, Upper G/F, Sunrise House","name":"Parkview Art Hong Kong","location":["中区","中环","香港岛"],"type":["购物","博物馆"],"photo":"https://media-cdn.tripadvisor.com/media/photo-o/07/99/e3/3f/parkview-art-hong-kong.jpg"}
{"_id":20264787,"description":null,"latitude":22.205801,"longitude":114.0286,"rating":6,"phone_number":"+852 2981 0459","address":"No.1A, Chung Hing Street, Cheung Chau","name":"Hung Shing Temple (Cheung Chau)","location":["新界","离岛","长洲"],"type":["景点与地标"],"photo":"https://media-cdn.tripadvisor.com/media/photo-m/1280/1b/16/c4/cf/hung-shing-temple-cheung.jpg"}
{"_id":2296809,"description":"海港城毗邻九龙天星码头，是香港最大的购物中心之一，这里有 700 多家商店、50 家餐厅、两家电影院和一个可以俯瞰海港美景的平台。","latitude":22.298103,"longitude":114.16869,"rating":8,"phone_number":"+852 2118 8666","address":"九龙尖沙咀广东道","name":"海港城","location":["尖沙咀","九龙","油尖旺区"],"type":["购物"],"photo":"https://media-cdn.tripadvisor.com/media/photo-o/11/22/3e/ac/ocean-terminal-deck.jpg"}
{"_id":593139,"description":"深水埗的名字是当时位于北河街与通州街交界的一个奇特的深水码头而得名的，位于九龙半岛西北部，其中共有21个选区。深水埗是香港最早的商业中心，主要是在长沙湾等一带以纺织、服装、副食品批发零售也为主的，因此有很多美眉都会来到这里淘宝了。深水埗是服装批发的总部，这里有众多的服装批发店构成了一种特色，除此之外深水埗现在是全香港最具规模的电脑硬件市场，还有驰名中外的电子街等。所以深水埗也是全香港电子市场的心脏。深水埗目前依然属于旧区，这里不仅土地缺乏而且社区设施也比较完善。尤其是这里的交通很具代表性，这里的交通贯穿了地铁、机铁以及超级的公路网，这样的优势使得很多来自世界各地的深水埗旅游者的前来。深水埗详细介绍：深水埗位于九龙半岛西北部，占地约1047公顷，人口约35.3万，共分为21个选区。本区北接沙田狮子山郊野公园，东以九广铁路为界，南抵界限街，西至海旁，包括昂船洲，是本港最早期的发展区域之一，亦曾为工商业及交通枢杻。时至今日，本区大部分土地均用作兴建住宅，如公共屋便占地近81公顷；长沙湾区则仍有许多任务厂及货仓。另外，设在昂船洲的驻港解放军军营，亦属本区范围。早在五、六十年代已十分人烟稠密，在一九八六年人口曾达44万，目前人口则降至35.3万。本区是是最贫穷的地区，家庭每月收入中位数最低(一万四千元)。本区长者人口比率是全港最高(15.7%)，新来港人士比例亦相当高(11.2%)。本区的公营及私营房屋数量约各占一半，共有13条公共屋(包括本港最早落成(1954年)的公营房屋-石硖尾)及七个居者有其屋屋苑。由于早年缺乏城市规划，以致巿容混乱，而建筑物多于五、六十年代建成，十分残旧，非法僭建举目皆是，引起很多楼宇管理和防火问题。这类楼宇以在南昌分区(福荣街、福华街及北河街一带)的数目最多。此外，由私人发展的楼宇，以美孚新和又一村最具特色，前者是本港最早期(1968年)由私人发展的大型屋苑，共分8期合共99座，住有六万名居民；后者则为高尚住宅区，与本区其它楼宇形成强烈对比。深水埗区可说是香港最早期的工商业中心，主要集中在长沙湾及荔枝角一带，占地约35公顷，以纺织制衣、服装、疋头及副食品批发零售业等为主。随工厂北移，本区的工厂数目由以往的六千多间(共十万名工人)，跌至目前不足三千间工厂和三万名工人。深水埗区属于旧区，土地缺乏，社区设施并不完善，惟有等待巿区重建及发展新填海区，才可逐步改善目前的情况。但本区的交通十分发达，贯穿本区的地铁、机铁和超级公路网络，令往返本区和港九、新界各区十分便捷。另一方面，区内有两所医院、一所大学(香港城市大学)、80间学校、3间社区会堂(丽阁、白田、石硖尾)及4间社区中心(长沙湾、大坑东、南昌、荔枝角)。此外，区内有三个公众游泳池、五个室内壁球中心(通州街)、一个壁球及乒乓球中心(歌和老街)及四个图书馆。","latitude":22.329296,"longitude":114.16643,"rating":8,"phone_number":"+852 2787 3099","address":"Sham Shui Po","name":"深水埗","location":["深水埗区","南昌","九龙"],"type":["景点与地标","其它"],"photo":"https://media-cdn.tripadvisor.com/media/photo-o/0d/74/09/2f/sham-shui-po-streets.jpg"}
{"_id":14143982,"description":null,"latitude":22.281483,"longitude":114.15408,"rating":9,"phone_number":"+852 3559 2600","address":"中环荷李活道10号","name":"大馆","location":["中区","中环","香港岛"],"type":["景点与地标"],"photo":"https://media-cdn.tripadvisor.com/media/photo-o/16/4d/01/a5/caption.jpg"}
{"_id":593142,"description":"浅水湾是香港一个美丽的海湾，位于港岛南部。浅水湾的海水温暖、浪平沙细等。在夏天的时候是浅水湾最热闹的时候，周围各式各样的泳装，人山人海的沙滩上，大批大批的旅游者纷纷来到这里度过炎热的夏天。在嬉戏完海水之后，可以坐在林荫下品尝烧烤美味，充满了野趣的感觉。浅水湾秀丽的景色使这里成为了浅水湾旅游的最佳去处。浅水湾不仅盛产各式的贝类，而且在沙滩看着呈弧线状优美的海滩才算是真正见识到了海天共一色，来浅水湾旅游会让您享受到无尽的生活情趣，同时也会享受到浅水湾较多宁静的空间。浅水湾详细介绍：位于香港岛南部的浅水湾是是香港最具代表性的美丽海湾。浅水湾海滩绵长，滩床宽阔，且水清沙幼，波平浪静。沙滩上中国古典色彩的镇海楼公园里有天后娘娘、大慈大悲观音神像，还有长寿桥等胜景。临海的茶座，则是欣赏红日西沉，涛声拍岸的好地方。浅水湾的秀丽景色，使它成为港岛著名的高级住宅区之一，其中包括香港巨商李嘉诚、包玉刚的豪华私宅。如果在海滩玩累了，可以到旁边的快餐店、餐厅及超级市场就餐、购物，曾经是著名的浅水湾酒店现在已经成为影湾园商场了。附近的深水湾、中湾及南湾，都是畅泳胜地。","latitude":22.237362,"longitude":114.1965,"rating":8,"phone_number":"+852 2623 6536","address":"南区太平山南面","name":"浅水湾","location":["海湾","香港岛","南区"],"type":["自然与公园","户外活动"],"photo":"https://media-cdn.tripadvisor.com/media/photo-o/05/85/8d/ff/repulse-bay.jpg"}
{"_id":13292535,"description":"结合最新的 VR 硬件技术、电影级别的实时动作捕捉装备以及 AAA 级质量的体验内容，缔造出全球最优秀、令你无法抗距的 VR 体验。让你的视觉、听觉和触觉感受前所未有的震撼。 非常适合团队活动丶公司活动和举办派对。","latitude":22.298857,"longitude":114.17284,"rating":10,"phone_number":"+852 2311 9995","address":"金马伦道3A-3C号 太兴广场","name":"Sandbox - 沙盒 VR","location":["尖沙咀","九龙","油尖旺区"],"type":["景点与地标","休闲与游戏"],"photo":"https://media-cdn.tripadvisor.com/media/photo-m/1280/15/37/3d/66/transform-into-heroic.jpg"}
{"_id":317417,"description":"山顶缆车是香港最早开始运作的公共的交通工具。来到山顶缆车旅游非常的方便，可以让你通过缆车观赏到中环花园道和威严的太平山顶。来到此旅游的人们都会关注缆车的历史，在“山顶缆车”未有营运时，前往的旗山到中环主要交通工具是桥，在1881年，来自苏格兰籍的商人“亚历山大芬梨史密夫”向香港总督提出了建议让兴建一条连接中环花园道与扯旗山炉峰峡的铁路，并且于1885年开始施工。之后，为了能够提高山顶缆车的客量以及安全度，缆车公司于1986年对缆车系统进行的现代化的计划，并邀请世界各地的公司参与投标，重新计划后的山顶缆车无论是速度还是设施都受到了游人们的赞叹。山顶缆车详细介绍：山顶缆车（1888年5月30日至今）是香港最早运作的机动公共交通工具，也是亚洲地区第一条缆索铁路，来往香港岛的中环花园道和太平山炉峰峡。山顶缆车路轨全长1.4公里，坡度4至27度，海拔28米至396米，车站包括花园道总站、坚尼地道站、麦当劳道站、梅道站、白加道站和山顶总站，来往两个总站车程约8分钟山顶缆车靠直径44毫米及断裂应力139公吨的钢缆拉动，路轨轨距1520毫米，全程大部分地方均是单轨行驶，唯于中央位置，设有两组路轨供两部缆车交叉上落。山顶缆车由两部铰接式缆车以相反方向行走，每个小时可载2800名人次。","latitude":22.27781,"longitude":114.159454,"rating":8,"phone_number":"+852 2522 0922","address":"卢吉道1号","name":"山顶缆车","location":["中区","中环","香港岛"],"type":["交通"],"photo":"https://media-cdn.tripadvisor.com/media/photo-o/06/9b/d6/9a/caption.jpg"}
{"_id":1944740,"description":"\" 九龙公园 (九龙-尖沙咀)\n 位于尖沙咀，设有百鸟居、展览馆、室内外游泳池、舞蹈馆、室内运动场、缓跑径、儿童游乐场、迷宫、露天雕塑径。\n\"\n","latitude":22.29839,"longitude":114.17193,"rating":8,"phone_number":"+852 2724 3344","address":"尖沙咀柯士甸道22号","name":"九龙公园","location":["尖沙咀","九龙","油尖旺区"],"type":["自然与公园"],"photo":"https://media-cdn.tripadvisor.com/media/photo-o/0b/69/a6/79/20160526-164340-largejpg.jpg"}
{"_id":2210636,"description":"\"铜锣湾 ─ 正宗香港风味\n既有充满地道特色的大排档和茶餐厅，也有西式酒吧、日本寿司店等。\n\n铜锣湾是旅客的购物天堂。从大型百货公司、精品商店，到售卖廉价品的货摊，商品款式新颖，选择多样，价位富有弹性，足以让您游逛一整天。 \n在铜锣湾，鞋履、家电用品和年轻人时装专卖店林立，商圈还云集了多个大型购物中心，包括时代广场、世贸中心、利园和利园二期、利舞台广场、名店坊和金百利商场，荟萃了世界名品和各国佳肴；皇室堡则以售卖各种电脑产品驰名。渣甸坊是购买廉价衣饰和生活杂货的热点。\"","latitude":22.280195,"longitude":114.18369,"rating":8,"phone_number":"+852 2434 3033","address":"湾仔以东，北角以西","name":"铜锣湾","location":["湾仔／铜锣湾","香港岛"],"type":["景点与地标","其它"],"photo":"https://media-cdn.tripadvisor.com/media/photo-o/08/55/84/a4/causeway-bay.jpg"}
{"_id":315462,"description":"香港文化博物馆是由香港康乐和文化事物署管理的，位于香港新界沙田大围文林路。香港文化博物馆内的藏品涵盖了历史、文化和艺术等。让来此旅游的游客们以及香港的居民们增加了对香港文化艺术方面的认识。香港文化博物馆的规模是整个香港最大的，博物馆采用中国传统的四合院布局，馆内还设有多个展览厅，其中收藏了不少的文化艺术作品以及当代大师的作品。馆中还设有了6个展览厅、1个剧院可以供演讲室等一些教育活动，另外也会有一些礼品店、茶室等可以让来此旅游的人们购买纪念品、刊物等稍事休息。香港文化博物馆详细介绍：香港文化博物馆位于沙田，于2000年12月启用，占地32000平方米，是一所综合博物馆，内容涵盖历史、艺术及文化。博物馆采用中国传统四合院布局，并糅合现代建筑技巧，别具特色。建筑以中轴线为中心，左右对称平衡，盖以中式瓦顶，各展览厅由游廊连接。香港文化博物馆规划12个展览厅，其中六个是常设展览厅，其余六个是专题展览厅。展览题材广泛，涵盖香港和南中国地区的历史、艺术和文化。为满足参观者的不同需求，博物馆透过多样化的展览及专案，以生动活泼的形式展示文物，让参观者透过欣赏及参与每个展览环节，寓学习于休闲。游览香港文化博物馆，还可以修正英国人于1842年占领香港时，「香港只是一块荒芜之石」的看法。在英国人占领香港前，香港渔农业的发展已有数百年历史，在沙田围出产的沙田稻米，在古代更加是贡品。","latitude":22.376823,"longitude":114.185684,"rating":9,"phone_number":"+852 2180 8188","address":"沙田文礼路1号","name":"香港文化博物馆","location":["新界","沙田"],"type":["博物馆"],"photo":"https://media-cdn.tripadvisor.com/media/photo-o/10/f0/76/b8/caption.jpg"}
{"_id":1645935,"description":"\"香港杜莎夫人蜡像馆：\n享负盛名的香港杜莎夫人蜡像馆，共设六个主题展区，展出约100尊栩栩如生的国际及亚洲名人蜡像。\"\n","latitude":22.271444,"longitude":114.14994,"rating":8,"phone_number":"+852 2849 6966","address":"山顶道128号凌霄阁2楼","name":"香港杜莎夫人蜡像馆","location":["山顶","中区","香港岛"],"type":["博物馆"],"photo":"https://media-cdn.tripadvisor.com/media/photo-o/05/17/da/7d/madame-tussauds-hong.jpg"}
{"_id":3362214,"description":"国际金融中心商场内有高端商店、旗舰店和概念店等各类商店共计 200 余家。 此外，该商场还提供各类其他服务，例如：礼宾台提供免费儿童糖果和气球。","latitude":22.285322,"longitude":114.15899,"rating":8,"phone_number":"+852 2295 3308","address":"中环金融街8号(近港铁机场快线)","name":"香港国际金融中心商场","location":["中区","中环","香港岛"],"type":["购物","景点与地标"],"photo":"https://media-cdn.tripadvisor.com/media/photo-o/11/8e/fb/6d/caption.jpg"}
{"_id":1642695,"description":null,"latitude":22.2945,"longitude":114.17413,"rating":8,"phone_number":"+852 5501 4431","address":"九龙尖沙咀梳士巴利道20号","name":"星光大道","location":["尖沙咀","九龙","油尖旺区"],"type":["景点与地标"],"photo":"https://media-cdn.tripadvisor.com/media/daodao/photo-s/02/36/79/42/2.jpg"}
{"_id":1875747,"description":"摩天大楼和大型购物中心遍布中环，灯光绚烂，霓虹溢彩。置地广场、嘉轩广场、太子大厦、历山大厦及国际金融中心商场等热门购物中心，云集了设计师品牌和国际殿堂级品牌专卖店，商品齐全，营造出高格调的购物环境。\n","latitude":22.2843,"longitude":114.16,"rating":8,"phone_number":"+852 2521 8811","address":"中西区","name":"中环","location":["中区","中环","香港岛"],"type":["景点与地标"],"photo":"https://media-cdn.tripadvisor.com/media/daodao/photo-s/02/3c/fd/2a/caption.jpg"}
{"_id":2226385,"description":"\"位于愉景湾码头旁的D Deck环海露天美食区，\n这个冬天邀你吃遍全球。超过20间各国主题特色餐厅，排列于连接大白湾沙滩的海滨长廊，你可以一边享受美食，一边欣赏南欧风情的的辽阔海景，再加上对岸的迪士尼每晚都有烟花汇演，这样赞的美食假期哪里找啊！\"\n","latitude":22.296667,"longitude":114.016335,"rating":8,"phone_number":"+852 3651 2345","address":"离岛","name":"愉景湾","location":["新界","离岛","愉景湾"],"type":["景点与地标","其它"],"photo":"https://media-cdn.tripadvisor.com/media/photo-o/15/9c/ae/fe/great-place-to-visit.jpg"}
{"_id":320284,"description":"兰桂坊位于中环云咸街与德己立街之间的一条短小、狭窄、呈L形并用鹅卵石铺成的街巷，街巷满布西式餐馆和酒吧，但声名很大。兰桂坊酒吧街缘起于七十年代初期，港府在中西区开始进行市区重建。道路的开拓，吸引商业资金的流入，当时一位意大利籍商人在这里开设了一间意大利服装店及餐厅。部份在中环上班的“优皮士”，下班后想找一个地方谈天，这家餐厅便成为他们欢乐时光的聚脚处。其后，有些电影在这里取景，兰桂坊渐渐成为一处有品味的消闲之地，酒吧、食肆及娱乐场所越开越多。随着近年在兰桂坊附近酒吧及餐厅的发展，云咸街交界与荣华里一段的德己立街，也被纳入兰桂坊的范围。至今，兰桂坊己由一条小巷发展成一个富西方文化的地区。并开设了超过五十家餐厅和各样的消费埸所，名字和装饰十分西化，洋溢特有的欧陆风味和异国情调，被誉为香港特有的文化特区。每逢节日，如圣诞节、万圣节、兰桂坊节、食品节等，兰桂坊都吸引大量中外人士参加狂欢活动。旅行未动，点评先行。让你玩的开心，吃的放心，住的省心。","latitude":22.28076,"longitude":114.155754,"rating":8,"phone_number":"+852 2623 6536","address":"中环","name":"兰桂坊","location":["中区","中环","香港岛"],"type":["景点与地标","其它"],"photo":"https://media-cdn.tripadvisor.com/media/photo-o/09/42/e6/94/lan-kwai-fong.jpg"}
{"_id":2050635,"description":"太古广场位于先香港中环东侧，这里是体验香港人吃喝玩乐生活消费模式的极佳去处。从金钟地铁站2楼到太古广场有步行通道相连。广场拥有3家五星级饭店、高级办公楼、住宅，以及200多家专卖店，云集了Prada Christian、Dior、Gucci、Louis Vuitton、D&G、Hugo、Lance等名牌。虽然这里的欧洲品牌没有置地广场和半岛酒店名店街那么多，但物品丰富，价格也比较合理，是许多香港人的购物首选。太古广场集结了港岛3大高级酒店(港丽酒店、港岛香格里拉、万豪酒店)、多座剧场与电影院和西武、连卡佛等多家大百货公司，是集买、食、住宿于一体的复合空间。太古广场的购物场所采用长廊设计，廊道两旁约有200间店铺、咖啡座和各式各样的异国风情餐厅。太古广场座落于香港商业中枢的金钟，面积超逾五百万平方尺，是香港最优越的购物商场之一。商场采用全天候式设计，楼高五层(连地库)，其地下一楼及二楼为香港西武、马沙与连卡佛三间大型连锁百货公司及多家名牌专门店。此外商场内设有行人天桥连接金钟廊与统一中心，亦有地下行人通道连接地下铁路金钟站及太古广场第三期，交通十分方便。商场另设有行人电梯连接香港公园。场内空间宽敞，环境舒适，购物消闲选择包罗万有，是国内游客购物、消闲、饮食及娱乐的理想好去处。太古广场位于香港岛的购物及商业枢纽，搜罗了逾130多个世界知名品牌，由时尚服装、珠宝名表、传统古董、家居摆设、影音器材，到各国特色美食，名店林立，尽显尊贵气派。","latitude":22.277662,"longitude":114.16554,"rating":8,"phone_number":"+852 2844 8988","address":"岛中环区金钟道88号","name":"太古广场","location":["香港岛","大佛口"],"type":["购物"],"photo":"https://media-cdn.tripadvisor.com/media/photo-o/0f/91/80/fa/photo0jpg.jpg"}
{"_id":3641963,"description":null,"latitude":22.297749,"longitude":114.17249,"rating":9,"phone_number":"+852 2369 7278","address":"弥敦道54-64号 Shop No. 25, G/F., Mirador Mansion","name":"L&K裁缝","location":["尖沙咀","九龙","油尖旺区"],"type":["其它"],"photo":"https://media-cdn.tripadvisor.com/media/photo-o/09/8f/9a/6b/l-k-custom-tailor.jpg"}
{"_id":604894,"description":"香港海事博物馆是由香港航运界的一位热心人在2003年时建立的，位于香港赤柱赤柱广场。海事博物馆主要是展示中国沿岸的航运史等，目前海事博物馆是由香港国际航运团体经营的，并且由全国政协副主席担任香港海事博物馆侧荣誉赞助人。整个香港海事博物馆分为了现代馆和古代馆了，现代馆提供了驾驶室以及电报室、香港船运的演变、未来船舶、货柜码头、蒸汽年代等展览，古代馆提供海事画作、西方远洋的探索、中国古代船运发展、中国沿岸与邻邦的接触等展览。香港海事博物馆详细介绍：香港海事博物馆（Hong Kong Maritime Museum）位于香港赤柱赤柱广场美利楼地下，由香港航运界的热心人士于2003年底开始筹建，2005年9月8日正式开幕。香港海事博物馆旨在展示南中国沿岸的航运史及香港所扮演的角色，由香港国际航运团体经营，全国政协副主席董建华担任该馆荣誉赞助人。","latitude":22.286707,"longitude":114.16206,"rating":9,"phone_number":"+852 3713 2500","address":"民光街 中环8号码头","name":"香港海事博物馆","location":["中区","中环","香港岛"],"type":["博物馆"],"photo":"https://media-cdn.tripadvisor.com/media/photo-o/08/5e/b1/49/hong-kong-maritime-museum.jpg"}
{"_id":593175,"description":"九龙寨城公园位于香港九龙城东头村道和东正道交界，邻近侯王庙，有着丰富悠久的历史背景。在香港历史上，九龙城寨是唯一没割让或租借给英国的香港领地，面积2万9千平方米。1994年辟为一座具香港特色的中国园林。九龙寨城公园座落于本港最历史性的地点之一，原址为九龙寨城，包括一座由坚固石墙，六座了望台和四道城门围着，面积达六点五英亩的寨城于一八四三至一八四七年间建成。公园将尽量保留寨城一些原有的建筑物及特色。九龙城寨，被贾丙达道、乐善道、东正道、东头村道与联合道所包围，面积约三公顷，在清拆前有居民约三万三仟，十至十四层高杖宇约有伍佰幢，居住单位约有玖仟叁佰位，包括壹仟居住单位作为工商业用途，八十七间牙医诊疗所，七十四间西医诊疗所，其它各行各业可以说包罗万象。因为该地环境特殊渐渐的就成为无政府的贼窝，以致很久以来都是良莠混杂，成为城市中一个毒瘤。许多在香港犯了法的人就逃到这里，然后落地生根，又因这里无法可管。自然贩毒，走私、杀人、抢劫的乱事不断。为了根治这个乱源，后于1987年中英政府达成协议，英国政府在香港回归前，特别颁布拆迁的赔偿法案，彻底消除这个没有法理之地，并在现地盖了这座九龙城寨公园。现在的公园已整顿得美轮美奂，九龙城也不再是罪恶的源头，城寨中早年在清末民初时留下的衙门、宅院，也在肃清后掘地时陆续发现。目前已尽量恢复其原貌，并将深具历史意义的石碑重新竖起。整座公园除了衙门与古迹外，全区仿照明末清初的江南园林建造的庭园山水，窗棂、楼阁、荷花池与悠游锦鲤，很有朴质古意。务求把历史融合于园林之中。现今的九龙寨城公园增加了不少建筑，但石匾、大炮、柱基及清朝官府碑铭等丰富的历史遗迹，在拆卸过程中仍然保留，置于公园陈列展览。园内还有当代罕见的南中国“衙门”建筑、城寨原有石碑、南门古迹以及战前的混凝土废墟，展示了城寨的沧桑变化。掌握九龙寨城公园最新奇的旅游资讯，了解最真实的网友点评，预定最便宜的舒适酒店，TripAdvisor为您提供九龙寨城公园全方位的信息。","latitude":22.305986,"longitude":114.185326,"rating":8,"phone_number":"+852 2716 9962","address":"东正道","name":"九龙城寨公园","location":["九龙城区","红磡湾","九龙"],"type":["自然与公园"],"photo":"https://media-cdn.tripadvisor.com/media/photo-o/0d/c0/f5/6e/walled-city-park.jpg"}
{"_id":320715,"description":"赤柱市场是一条历史性街道，坐落于香港宁静的南海岸，受到当地人及游客的喜爱。在这里可以买到各式纪念品，例如漆器、刺绣桌布、书画等。","latitude":22.218449,"longitude":114.21223,"rating":8,"phone_number":"+852 2178 0093","address":"赤柱滩道","name":"赤柱市集","location":["赤柱","香港岛","南区"],"type":["购物"],"photo":"https://media-cdn.tripadvisor.com/media/photo-s/09/97/15/15/stanley-market.jpg"}
{"_id":2241513,"description":"金光飞航于2007年11月启航，提供往来香港与澳门之间的豪华高速渡轮服务。截至2017年12月止，该船队已为超过6,700万名乘客提供优质服务，于2017年期间平均每日设有约94班次。金光飞航现拥有14艘双体客船穿梭香港澳门两地，每艘客船可载客超过400人，最高船速约为每小时42海里。金光飞航提供三项客舱类别，并透过直航船往返澳门、氹仔、香港、九龙及香港国际机场，为旅客及澳门市民提供重要的交通选择。金沙中国有限公司委托珠江船务高速船有限公司，管理及经营金光飞航。","latitude":22.288221,"longitude":114.15224,"rating":8,"phone_number":"+852 2359 9990","address":"渡轮口","name":"金光飛航","location":["上环","中区","香港岛"],"type":["交通"],"photo":"https://media-cdn.tripadvisor.com/media/photo-o/07/5a/ad/31/cotai-water-jet.jpg"}
{"_id":593126,"description":null,"latitude":22.28537,"longitude":114.14827,"rating":8,"phone_number":"+852 3105 0767","address":"荷里活道南","name":"SoHo 荷南美食区","location":["上环","中区","香港岛"],"type":["景点与地标","其它"],"photo":"https://media-cdn.tripadvisor.com/media/photo-o/0b/78/b3/63/soho.jpg"}
{"_id":487231,"description":"有一座巍峨雄伟的车公庙，香火鼎盛，在这里一年四季香火缭绕。尤其是在春节期间，特别是年初三这天车公华诞那天，车公庙吸引了无数来自港九各地的人们前来参神，大概有十多万人。由于车公庙比较拥挤，有些人因为无法挤进庙内参拜，竟然在附近的空地上烧纸焚香。车公庙建立有两种版本，其一，与镇压瘟疫有关，另一，与据说和田心村村民开村的风水有关。所以乡民们只有把希望寄托在车公的身上，人们为了驱病辟邪，于是抬着车公神像遍游了各乡，并且敲锣打鼓，后来瘟疫真的消失了，乡民认为车公十分灵验。之后人们又在车公庙前许愿，所以之后每隔十年车公庙都会举行一次建醮盛会。自此，车公便从此远近闻名了，吸引了无数慕名前来拜祭的人们和来到车公庙旅游的人们。车公庙详细介绍：车公是南宋一位名将，后人为表扬他忠勇卫国而奉之为神。沙田车公庙约有百多年历史，相传当年车公为田心村民消灾解困，免受洪水和瘟疫之灾，遂得村民立庙供奉；自此香火日盛，广受沙田区居民尊奉。过去一百年来，善信礼拜车公后时来运转之说，吸引了沙田区以外的信众专程前来祈福，特别是农历新年期间，更是人潮熙攘。今日所见的车公庙于1993年建成，原有的旧建筑在19世纪时重建，现仍保存下来，立于新庙堂的背后。车公庙大门两旁的石柱上刻有对联：“车转普天下般般丑心变好，公扶九约内事事改祸为祥”，意即车公是沙田的守护之神。车公庙著名的铜风车摆放在车公像旁，前来礼拜的人都会把风车转一转，祈求好运降临。","latitude":22.373383,"longitude":114.18259,"rating":8,"phone_number":"+852 2691 1733","address":"车公庙路","name":"沙田车公庙","location":["新界","沙田"],"type":["景点与地标"],"photo":"https://media-cdn.tripadvisor.com/media/photo-o/06/2c/b4/24/shatianche-temple.jpg"}
{"_id":19924388,"description":null,"latitude":22.300425,"longitude":114.15712,"rating":8,"phone_number":"+852 2200 0217","address":"Art Park, West Kowloon","name":"M+ Pavilion","location":["九龙","油尖旺区"],"type":["博物馆"],"photo":"https://media-cdn.tripadvisor.com/media/photo-m/1280/1b/5d/e4/0c/romantic-view-of-hong.jpg"}
{"_id":12955828,"description":null,"latitude":22.401215,"longitude":114.24261,"rating":7,"phone_number":"+852 3421 1436","address":"马鞍山村上村35号","name":"鞍山探索馆","location":["新界","沙田"],"type":["博物馆"],"photo":"https://media-cdn.tripadvisor.com/media/photo-o/11/7e/35/56/photo1jpg.jpg"}
{"_id":593170,"description":"香港立法会大楼位于香港中环昃臣道，是举行立法会的地方。香港立法会大楼的外形非常的雄伟，楼顶是呈园型的，并且是由一系列的花岗岩石柱作为支撑。整个大楼采用的是古典式的建筑风格，这个设计看起来结合了英国、中国以及希腊的建筑特色。楼内设有一个会议大堂和办公室，大堂内部最使人印象深刻的是位于顶部中央的象徽法律公正无私的希腊泰美思女神雕像。女神的雕像屹立在三角形的山墙顶部，左手拿着天秤，右手拿剑，而且蒙上双眼，这里表示了不偏不倚，公正严明的法律精神，可以说是庄严的香港立法会大楼景点了。香港立法会大楼特区政府将在金钟添马舰兴建新的政府总部及立法会大楼，当工程完成之后立法会将会搬迁，香港立法会大楼未来将作为香港终审法院新大楼，如果您感兴趣的话可以到香港立法会大楼旅游吧。香港立法会大楼详细介绍：香港立法会大楼，位于香港中环昃臣道8号，是现时香港立法会举行会议之地。【历史】香港立法会大楼的前身是最高法院大楼，由立法局于1898年2月28日决议兴建，大楼由英联邦采办处的顾问建筑师亚士东·伟柏（Aston Webb）及英格里斯·贝尔（Ingress Bell）所设计。大楼于1900年开始动工兴建，1903年奠基，由于缺乏石匠与合适的花岗岩，工程延至1912年才得以完成。1912年1月15日，最高法院由香港总督卢嘉主持揭幕。当时的首席按察司皮葛曾表示：“即使他日维多利亚城不复存在，海港被淤泥壅塞，香港会所坍塌湮没，这座大楼仍将巍然矗立，如金字塔，为远东的睿智留下见证。”由于英文的法院一词“Court”与粤语的“葛”发音相近，最高法院大楼亦被俗称为“大葛楼”。法院启用初期仅设有3个法庭，曾被批评是极大的浪费。当时，法院由1名首席按察司和1名最高法院法官所主理，若任何人对他们其中一人的判决不服，则由二人组成合议庭进行上诉聆讯。香港日治时期，大楼被改为香港宪兵部本部，并加建拘问室等设施。战后，法官人数大幅增加，最高法院于1970年代加建隔间，以容纳共7所法庭，地方已不敷应用，最高法院因此计划搬迁。1978年，受到地下铁路在遮打道工程影响，最高法院大楼结构受损，需要关闭进行紧急复修。最高法院其后迁往维多利亚地方法院，1984年再迁往金钟法院道现址。最高法院大楼于1983年至1985年期间进行改建工程，以供立法局进行会议及办公之用，大楼外部并于1984年被列为法定古迹。立法局大楼于1985年10月30日由总督尤德主持揭幕及召开首次会议。1997年香港主权移交后，大楼随着立法机关更名而改称为立法会大楼。【建筑特色】大楼采用新古典主义的建筑风格，仿效古罗马及希腊的建筑设计，四周筑有约17米高的爱奥尼亚式圆柱，中央为圆顶建筑，雄伟的外观令人印象深刻。同时，建筑亦揉合中国建筑特色，大楼的四坡屋顶以双层中国瓦片铺砌，并采用精心雕琢的中式柚木托架承托屋檐，别具风格。为配合香港的亚热带季风气候环境，大楼地下筑有拱廊，一楼则筑有露台，既可防止阳光直接照射大楼内部，同时有利通风，帮助散热。【楣饰与雕像】大楼面向皇后像广场的中央门廊部分筑有三角楣饰（新古典主义的建筑特色），并刻有“Erected ADMDCCCCX”（公元1910年竖立）的题字。窗户顶部为英国皇家盾形纹徽：左上方与右下方各刻有三头狮子，代表英格兰；右上方的一头狮子代表苏格兰；左下方的竖琴代表爱尔兰。盾徽由英格兰狮子及苏格兰独角兽护持，顶端雕有皇冠，下刻有最高统治者的铭辞“DIEUETMONDROIT”（汝权天授）。倚在皇家盾形纹徽两旁的雕像，则象征怜悯及真理。三角楣饰的顶部竖立一尊高2.7米，代表公义的泰美斯女神（英文：Themis；希腊文：Θέμις）雕像，女神右手持着代表公正的天秤，左手持着象征权力的剑。女神蒙上双眼，表示法律精神不偏不倚，公正严明。大楼的最高点是青铜制的都铎皇冠雕塑，是英皇爱德华七世于1902年采用的御冠。【内部设施】·5个供不同使用者进出的入口：向皇后像广场的中央入口为囚犯专用（立法局迁入后停用）；向昃臣道的两个入口则为司法常务官、文员和法官专用（立法局迁入后改为议员及职员入口）·地下设有田土厅及司法常务官办公室、服务柜位、囚室、接收囚犯室、警员等候室、执达主任室。·地下设有室内高架桥，连接囚犯接收室与一楼的法庭，被称为“奈何桥”。·一楼原设有3个楼高两层的法庭。经过多次改建后，一楼及二楼共设有7个法庭。·1970年代，一楼的大法庭被改建为图书馆（即现时的立法会会议厅）【未来发展】由于立法会大楼面积有限，不仅无法满足将来政制发展而增加议席的需要，现时的议员办事处、立法会秘书处、研究部及图书馆等办公设施现时亦分散在不同地点，构成相当的行政不便。因此迁建立法会大楼的建议，在主权移交前后一直被提出。1998年亚洲金融风暴后，香港特区政府放弃拍卖添马舰地皮，并计划改作兴建新政府总部及立法会大楼。经过多年的讨论与检讨，政府于2002年同意落实有关计划，并邀请世界各地有兴趣参与的机构，提交意向书和设计概念。然而受到SARS事件影响，政府于2003年5月搁置向立法会财务委员会就有关计划的拨款申请，并于同年11月正式宣布押后添马舰发展工程。随着香港经济的逐步好转，行政长官曾荫权于《2005-2006年度施政报告》宣布，重新恢复展开在添马舰兴建新政府总部及立法会大楼的发展计划。整个计划耗资51亿6890万港元。建议的立法会综合大楼，总楼面面积为36230平方米，包括设有89席的议事厅、5个会议室、3个记者室等设施。立法会财务委员会于2006年6月23日通过有关拨款，工程重新招标，预计2007年年中开始动工，2010年年底完成。有关立法会大楼于搬迁后安排，香港终审法院首席法官李国能曾于2006年1月公开建议将终审法院搬迁至立法会大楼，过去亦有人建议将大楼改建为博物馆，暂时未有定论。【香港立法机关会议场地】在最高法院大楼被改作立法局大楼之前，香港立法局会议场地如下：总督官邸：·庄士敦楼（1843年至1846年）·坚道总督官邸（1846年至1855年）·总督府（1855年至1930年代）香港政府总部：·旧中区政府合署（1930年代至1941年、1945年至1957年）·中区政府合署（1957年至1985年）由于中英两国就政制过渡安排谈判破裂，中华人民共和国全国人民代表大会香港特别行政区筹备委员会组建的香港特别行政区第一届政府推选委员会于1996年12月选出临时立法会。为避免香港同时存在两个立法机关，临时立法会于香港主权移交前的日常运作及会议均在深圳市进行。曾经暂作为临时立法会会议场地的地点如下：·深圳华夏艺术中心正厅（1996年12月至1997年6月）·香港会议展览中心新翼（1997年7月1日）","latitude":22.280819,"longitude":114.16034,"rating":8,"phone_number":"+852 2869 9200","address":"昃臣道8号","name":"前立法会大楼","location":["中区","中环","香港岛"],"type":["景点与地标"],"photo":"https://media-cdn.tripadvisor.com/media/photo-o/02/36/e6/42/legco-building-in-hong.jpg"}
{"_id":14965669,"description":null,"latitude":22.284637,"longitude":114.21582,"rating":9,"phone_number":"+852 2884 6888","address":"鲗鱼涌康山道2号 康怡广场南座","name":"AEON STYLE 康山","location":["东区","香港岛"],"type":["购物"],"photo":"https://media-cdn.tripadvisor.com/media/photo-w/14/2a/4e/25/supermarket.jpg"}
{"_id":10020362,"description":null,"latitude":22.274765,"longitude":114.15943,"rating":9,"phone_number":"+852 2111 5999","address":"灣仔港灣道二號藝術中心","name":"香港藝術節","location":["山顶","中区","香港岛"],"type":["活动"],"photo":"https://media-cdn.tripadvisor.com/media/photo-s/0a/d1/9b/a0/ballet-opera.jpg"}
{"_id":4496187,"description":"置地广场是顶级购物和品位生活的代名词。其悠久历史始自1904年，时至今日，这里成为置地公司中环物业的高级时尚购物点，其中包括4座地标建筑：置地广场中庭、置地历山、置地遮打和置地太子。这些地标建筑由人行天桥相连，云集了约208家最为精挑细选的名店和食府，荟萃琳琅满目的高级时装和配饰、巧夺天工的钟表珠宝、别致矜贵的家居用品、贴心专业的美容护理服务，以及让味蕾尝鲜的中外美馔，为品位非凡的顾客呈献最惬意称心的购物体验。","latitude":22.281395,"longitude":114.15927,"rating":8,"phone_number":"+852 2500 0555","address":"中环遮打道10号","name":"置地太子","location":["中区","中环","香港岛"],"type":["购物","景点与地标"],"photo":"https://media-cdn.tripadvisor.com/media/photo-m/1280/16/94/cd/07/landmark-prince-s.jpg"}
{"_id":2224828,"description":"\" 又一城\n 云集各类时装、化妆品以及家居用品等。\"\n","latitude":22.303476,"longitude":114.160286,"rating":7,"phone_number":"+852 3652 7878","address":"九龙区","name":"九龙塘","location":["九龙","油尖旺区"],"type":["景点与地标","其它"],"photo":"https://media-cdn.tripadvisor.com/media/daodao/photo-s/02/14/52/37/caption.jpg"}
{"_id":5951580,"description":null,"latitude":22.334778,"longitude":114.16569,"rating":7,"phone_number":"+852 2353 1311","address":"九龙石硖尾白田街30号","name":"赛马会创意艺术中心","location":["深水埗区","九龙"],"type":["购物","博物馆"],"photo":"https://media-cdn.tripadvisor.com/media/photo-o/07/a3/c9/30/caption.jpg"}
{"_id":4540983,"description":null,"latitude":22.281843,"longitude":114.18402,"rating":7,"phone_number":"+852 2576 4121","address":"铜锣湾告士打道280号","name":"世贸中心商场","location":["湾仔／铜锣湾","香港岛"],"type":["购物"],"photo":"https://media-cdn.tripadvisor.com/media/photo-o/0a/a9/91/c8/wtc-more.jpg"}
{"_id":3362749,"description":null,"latitude":22.502352,"longitude":114.127914,"rating":6,"phone_number":"+852 2639 9638","address":"上水龙琛路39号(近上水火车站)","name":"上水广场","location":["新界","北区"],"type":["购物"],"photo":"https://media-cdn.tripadvisor.com/media/photo-m/1280/15/f4/fb/53/san-hong-street.jpg"}
{"_id":593046,"description":null,"latitude":22.28537,"longitude":114.14827,"rating":8,"phone_number":"+852 2852 3549","address":"荷里活道","name":"香港西区","location":["上环","中区","香港岛"],"type":["景点与地标","其它"],"photo":"https://media-cdn.tripadvisor.com/media/photo-o/04/a6/60/be/caption.jpg"}
{"_id":4479155,"description":null,"latitude":22.322254,"longitude":114.16896,"rating":7,"phone_number":"+852 2148 1626","address":"旺角弥敦道750号","name":"始创中心商场","location":["旺角","九龙","油尖旺区"],"type":["购物"],"photo":"https://media-cdn.tripadvisor.com/media/photo-o/12/66/b4/e3/caption.jpg"}
{"_id":3362766,"description":null,"latitude":22.281898,"longitude":114.18404,"rating":7,"phone_number":"+852 2576 4121","address":"铜锣湾告士打道280号(近怡东酒店)","name":"世贸中心(告士打道)","location":["湾仔／铜锣湾","香港岛"],"type":["购物"],"photo":"https://media-cdn.tripadvisor.com/media/photo-o/0f/75/b9/28/world-trade-center-causeway.jpg"}
{"_id":7022746,"description":null,"latitude":22.320793,"longitude":114.19156,"rating":5,"phone_number":"+852 3509 7338","address":"九龙土瓜湾马头角道63号","name":"牛棚艺术村","location":["九龙城区","九龙"],"type":["景点与地标"],"photo":"https://media-cdn.tripadvisor.com/media/photo-o/0c/c1/fc/55/another-angle-of-the.jpg"}
{"_id":8052178,"description":null,"latitude":22.297894,"longitude":114.17004,"rating":9,"phone_number":"+852 2376 1211","address":"30, Haiphong Road, Tsim Sha Tsui","name":"Haipohong Road  Temporary Market","location":["尖沙咀","九龙","油尖旺区"],"type":["购物","饮食"],"photo":"https://media-cdn.tripadvisor.com/media/photo-o/07/da/93/79/haipohong-road-temporary.jpg"}
{"_id":5960766,"description":null,"latitude":22.288668,"longitude":114.192764,"rating":8,"phone_number":"+852 2512 3000","address":"油街12号","name":"油街艺术空间","location":["北角","香港岛","东区","城市花园"],"type":["购物","博物馆"],"photo":"https://media-cdn.tripadvisor.com/media/photo-w/05/38/26/d0/oi.jpg"}
{"_id":10519584,"description":null,"latitude":22.281328,"longitude":113.93528,"rating":7,"phone_number":"+852 3977 4687","address":"新界东涌逸东街8号","name":"逸东商场","location":["新界","离岛","大屿山"],"type":["购物"],"photo":"https://media-cdn.tripadvisor.com/media/photo-o/0d/cd/e5/62/yat-tung-shopping-centre.jpg"}
{"_id":590811,"description":"香港动植物是在香港最早建立的公园。在早时这里被称为香港植物公园，当时是以植物为主的。但是到了1876年公园开始了饲养各种雀鸟以及哺乳动物，供旅游者的观赏。除此之外，动植物公园还竖立了前港督坚尼地的铜像。园中最受人们欢迎的是动物的展出，香港动植物公园通过教育、研究、保育和展览会促进公众对各种动植物的认识。香港动植物公园是一个能够提供动植物方面的教学公园，使大学生们能够对动物、生物、植物等多类化的环境有更深刻的了解。来此旅游是一个让您能够吸取知识、缓解生活压力的最佳的选择。香港动植物公园详细介绍：香港动植物公园是香港规模最大的植物和鸟类公园。始建于1861年，最大特色是除了有全东南亚最大、具备双气候控制的温室、展出2000多种罕见植物外，还养有一百多种野鸟，其中包括一些濒临灭绝的种群，园内还建有一座铁铸音乐台。这里还是欣赏前总督府的上佳地点。","latitude":22.277456,"longitude":114.156006,"rating":8,"phone_number":"+852 2530 0154","address":"雅宾利道","name":"香港动植物公园","location":["半山区","中环","香港岛","中区"],"type":["动物园与水族馆","自然与公园","户外活动"],"photo":"https://media-cdn.tripadvisor.com/media/photo-o/10/94/2b/57/caption.jpg"}
{"_id":2282452,"description":null,"latitude":22.287724,"longitude":114.1502,"rating":8,"phone_number":"+852 2307 0880","address":"澳门渡轮码头","name":"喷射飞航","location":["上环","中区","香港岛"],"type":["交通"],"photo":"https://media-cdn.tripadvisor.com/media/photo-o/09/78/47/c4/turbojet.jpg"}
{"_id":8036157,"description":null,"latitude":22.252478,"longitude":113.91175,"rating":9,"phone_number":"+852 2810 2770","address":"大屿山昂坪","name":"心经简林","location":["新界","离岛","大屿山"],"type":["景点与地标"],"photo":"https://media-cdn.tripadvisor.com/media/photo-o/10/87/cb/15/photo0jpg.jpg"}
{"_id":315463,"description":"文武庙位于大埔区，同时也是新界的建筑物。文武庙在1984年被列为香港的法定古迹了。文武庙是鹿港文教的发源地，是由祠、书院、庙组合建筑，在香港是非常罕见的。文开书院建立于清道年间而且是为了纪念明末沈光文而命名的，后来因为产生了火灾就进行重建了，虽然已经失去了原来的味道，但是文武庙内依然是人来人往，香火鼎盛的地方。文武庙内部的典雅建筑值得一看，尤其是文武庙四周的围墙使寺庙内部显得非常的寂静。寺庙内采用的是对称的布局，中轴的两旁共分三个部分，第一部分是正门入口处，第二部分是露天庭园，第三部分是大殿。其中文武庙大殿的布局非常的精巧、精致会让您大饱眼福的。文武庙详细介绍：位于荷里活道，创建的历史可追溯至香港开埠初期。庙内奉祀昌帝及关帝，是香港最著名的庙宇之一。据说始于清朝年间的斩鸡头和烧黄纸等仪式，到目前仍然被香港政府所承认的。此庙虽经多次修建，总体仍保持旧貌，至今香火鼎盛。","latitude":22.44854,"longitude":114.16518,"rating":8,"phone_number":"+852 2803 2916","address":"中环荷里活道124-126号","name":"文武庙","location":["新界","大埔","大埔墟"],"type":["景点与地标"],"photo":"https://media-cdn.tripadvisor.com/media/photo-m/1280/16/ba/81/a1/photo4jpg.jpg"}
{"_id":15044519,"description":null,"latitude":22.314514,"longitude":113.93494,"rating":9,"phone_number":"+852 3960 1396","address":"赤鱲角翔天路1号国际机场1号航站楼离港层6楼 (1号门附近)","name":"香港环亚优逸庭","location":["新界","离岛","东涌"],"type":["旅客资源"],"photo":"https://media-cdn.tripadvisor.com/media/photo-m/1280/18/29/44/f5/aerobar.jpg"}
{"_id":2136182,"description":"这家高端购物中心以中国五行为设计理念，划分出奢侈品、美妆和生活用品、时尚单品、餐饮和娱乐五大区域。 此外，这里的户外酒吧还深受外国友人的喜爱。","latitude":22.30428,"longitude":114.16124,"rating":8,"phone_number":"+852 2735 5234","address":"柯士甸道西1号","name":"圆方广场","location":["九龙","油尖旺区"],"type":["购物"],"photo":"https://media-cdn.tripadvisor.com/media/photo-o/0a/73/60/55/elements-mall.jpg"}
{"_id":2173838,"description":"这间购物中心是香港的热门购物目的地之一，汇聚了各类时尚、高端产品，其中包括：Bottega Veneta、古驰、迪奥和 Saint Laurent 等品牌产品。 另外还有不容错过的高品质美食区。","latitude":22.27841,"longitude":114.18231,"rating":8,"phone_number":"+852 2118 8900","address":"勿地臣街1号 铜锣湾","name":"时代广场","location":["湾仔／铜锣湾","香港岛","坚拿道"],"type":["购物","景点与地标"],"photo":"https://media-cdn.tripadvisor.com/media/photo-m/1280/1b/eb/70/46/situated-at-causeway.jpg"}
{"_id":2050646,"description":"在香港有一条著名的徒步线路———麦理浩径，这条线路是1979年10月26日启用，全长100公里。以西贡北潭涌为起点，绕过万宜水库，由东向西横贯新界，以屯门为终点，共分为十段。沿途有路标指示牌，每段都有报到处和休息处。麦理浩径横跨香港23个郊野公园中的8个，沿途要翻越二十多座山头，如420米的牛耳石山、702米的马鞍山、649米的草山和957米的大帽山等。全程风景各异，不论山岭、岸边、丛林、溪涧，全都美丽得叫人叹为观止，尤其是其中第三﹑四﹑七﹑八段，都是连绵不断崎岖难行的山路，几百米直上直下，令人色变。麦理浩径共分十段，长度由5至16公里不等，大部分约长10公里。它从北潭涌开始，绕过西贡半岛，转向西面，到达九龙群山，再从城门开始往北走到达大帽山，然后往西走，以屯门为终点。除了部分的段落是水泥平路外，大部分的麦理浩径都是依山势而建，只有小部分费力难行，其余大多都是易行的。全条麦理浩径都安装了明确的指示路标，在交通交汇的地点亦提供了郊野公园设施。虽然在某些段落的起点与公共交通工具的上落点有距离，但公共交通工具大都可到达麦理浩径。麦理浩径沿途每500米设有一个标志柱，全程共200个标志柱。尤其是其中第三﹑四﹑七﹑八段，都是连绵不断崎岖难行的山路，几百米直上直下。掌握麦理浩径最新奇的旅游资讯，了解最真实的网友点评，预定最便宜的舒适酒店，TripAdvisor为您提供麦理浩径全方位的信息。","latitude":22.362328,"longitude":114.34896,"rating":9,"phone_number":"+852 3105 0767","address":"新界东西贡区 New Territories East","name":"麦理浩径","location":["新界","西贡"],"type":["自然与公园","户外活动"],"photo":"https://media-cdn.tripadvisor.com/media/photo-o/05/19/80/07/maclehose-trail.jpg"}
{"_id":593179,"description":"嘉道理农场暨植物园是香港的一个农场以及植物园，位于新界大浦区。听到嘉道理农场暨植物园这个名字人们一定会感到非常的奇怪为什么取这样的名字呢？而且为什么农场跟植物园是在一起的呢？其实，这些问题都来自于一段历史，在1949年的时候大量的中国内地居民涌入香港，之后嘉道理兄弟经研究成立了“嘉道理农业辅助会”让他们以务农为生。现在的嘉道理农场暨植物园把重点转移到了自然保护以及教育方面去了。现在这里本地植物占一半以上， 饲养动物大部分是香港的大型哺乳类动物、爬虫、昆虫等两栖动物等，另外这里还会有一些水鸟园、蝴蝶园、昆虫馆、鹿苑等。这里丰富的生物产、植物产等都吸引了嘉道理农场暨植物园旅游的人们。","latitude":22.433365,"longitude":114.11819,"rating":9,"phone_number":"+852 2488 1317","address":"新界林锦公路","name":"嘉道理农场暨植物园","location":["新界","大埔"],"type":["景点与地标","自然与公园"],"photo":"https://media-cdn.tripadvisor.com/media/photo-o/14/06/58/17/caption.jpg"}
{"_id":315245,"description":"庙街是香港最有名的露天广场，处于九龙的油麻地。庙街夜市可以说是香港很有特色的地方。来到庙街夜市旅游的人们几乎都知道在下午4点之后街上就开始摆满了摊位，一个个的五光十色摊位摆着各式各样的地摊货。每天在傍晚6点到深夜12点的时候也是庙街夜市最热闹的时候。因为考虑到庙街夜市气氛和安全，所以建议您最好在8点到9点间去夜市比较合适。由于当地的购物客、旅客非常拥挤使得庙街夜市非常的繁杂，由于很多摊子售卖男士服装，所以这个摊子被人们称之为“男人街”是专门售卖牛仔裤、领带、内裤等等。庙街夜市详细介绍：庙街夜市位于九龙油麻地，每晚灯火通明，饮食摊子与衣服摊子比比皆是，偶而可见占卜及演唱粤曲的摊子。从傍晚6点到深夜12点是最热闹的。考虑到气氛与危险程度，晚上您最好还是在8点到9点间前往为好。南京街与文明里之间长约600米的道路两旁，都是露天小店。当地的购物客、旅客非常拥挤。这条街别名叫“男人街”，总数350家的店铺之中，有150多家是专卖男士服装用品的店。有牛仔裤、T恤衫，还有领带、内裤等等。从南京街到天后庙一带，都是卖西服、太阳镜、皮带、皮鞋、打火机的，非常便宜。","latitude":22.305946,"longitude":114.169945,"rating":7,"phone_number":"+852 2807 6543","address":"九龙旺角佐敦道和甘肃街","name":"庙街夜市","location":["九龙","油尖旺区","约旦／油麻地"],"type":["购物"],"photo":"https://media-cdn.tripadvisor.com/media/photo-o/0f/1f/65/bf/caption.jpg"}
{"_id":4354590,"description":null,"latitude":22.276663,"longitude":114.16065,"rating":9,"phone_number":"+852 2521 5041","address":"中环公园内","name":"尤德观鸟园","location":["中区","中环","香港岛"],"type":["自然与公园"],"photo":"https://media-cdn.tripadvisor.com/media/photo-o/04/0c/c0/12/edward-youde-aviary.jpg"}
{"_id":635372,"description":"这条街是位于旺角的一个大型街道市场，也是香港购买物美价廉商品的最佳地点之一。这里有 T 恤、旗袍、丝绸睡衣、筷子、手袋、皮带、发饰、玩具等等众多商品。","latitude":22.318115,"longitude":114.17076,"rating":7,"phone_number":"+852 9173 7786","address":"通菜街","name":"女人街","location":["旺角","九龙","油尖旺区"],"type":["购物"],"photo":"https://media-cdn.tripadvisor.com/media/photo-o/0e/22/a3/c2/3-3.jpg"}
{"_id":537986,"description":"尖沙咀弥敦道是由尖沙咀伸展到九龙半岛以北的界限街，给人们的感觉很长，这里却吸引了不少游客的到来。当您从尖沙沮地铁站往佐敦的方向走是该街最为繁忙的地段了。在尖沙咀弥敦道，远远的街边开设了多家珠宝金行、药材店、电器行等。夜晚会使尖沙咀弥敦道显得更美丽，宁静的道路上各式各样的霓虹灯招牌在夜色中闪烁着。街上的小店里的货品会让您挑到眼花花的，这里一定会让每一位对美有着执着追求的美眉们感叹香港是个女人的天堂，如此繁华热闹的大街可以说迷人的尖沙咀弥敦道景点了。尖沙咀弥敦道详细介绍：弥敦道由尖沙咀海旁伸延至九龙半岛以北的界限街。尖沙咀至佐敦一段是繁忙的购物区；晚上游人如鲫，各式各样的霓虹招牌闪烁不停，今人目眩。","latitude":22.37395,"longitude":114.10169,"rating":8,"phone_number":"+852 2723 0030","address":"九龙","name":"弥敦道","location":["新界","荃湾"],"type":["景点与地标","其它"],"photo":"https://media-cdn.tripadvisor.com/media/photo-o/01/25/07/70/caption.jpg"}
{"_id":2050636,"description":"朗豪坊坐落于旺角黄金地段的亚皆老街8号，集购物，饮食，娱乐于一身的大型购物商场，是九龙区内备受瞩目的大型三合一综合优质发展商场，是国内游客到香港旅游必到之新去处。朗豪坊总面积达16.7万平方米，其中包括一幢59层的甲级商厦，及近工百多间商店与食肆的15层高大型购物商场及42层高的五星级朗豪酒店。 商场1楼至3楼是汇聚时尚品牌的商铺，亦可谓是名牌的集中地，多个国际品牌均进驻这一层，当中包括Armarni Exchange、Miss Sixty、Shu Uemura、United Colors of Benetton等时尚服饰，国内游客换季置装来这里就最适合不过了。4楼的通天广场是为商场的饮食重点，拥有多间特色的食肆，如Italian Tomato，阿拉面馆，元气寿司，味千拉面，星巴克咖啡及表哥茶餐厅等等。国内游客可以在购物之余也可享受到香港的美味佳肴，这里是游客疯狂购物后最佳的充电地方，因为这里有齐中、西、日、韩、意等各式美食，包括Starbucks、满记、香辣屋、元气寿司等，迎合不同食客的口胃。5楼至7楼则主打年轻一族的服饰，旺角是年轻人的世界，既然商场坐落在这里，当然要照顾到年轻人的需要。五楼至七楼集中了很多年轻潮流的名店，包括商场8楼至12楼是螺旋式设计的潮流特区，位于八至十楼的螺旋式设计区域是商场两大特别区域之一，这四层商场以螺旋式设计，超过一百五十间商店售卖至潮的年轻人玩意、服饰和摆设。这类型店铺大部份是引进日本及本地最新设计时装品牌，并且有提供在本港限量出售的运动鞋、收藏品、玩具及各式各样的特色饰物。最后12楼至13楼是Ozone的娱乐专区，Ozone是商场的另一个特别区域，位于商场的最顶层，是游客终极吃喝玩乐的好地方，内有各式餐厅、酒吧及Cafe，同时游客可以近距离欣赏“数码天幕”( Digital Sky )的最佳位置。朗豪坊位于旺角地铁站上盖，交通十分方便，前往中环商业区只需十分钟，机场亦只需三十分钟。购物人士除可选搭地铁外，亦可选搭多条公交车或小巴路线前来。","latitude":22.318523,"longitude":114.168564,"rating":8,"phone_number":"+852 3520 2800","address":"九龙油尖旺区亚皆老街8号","name":"香港朗豪坊","location":["旺角","九龙","油尖旺区"],"type":["购物"],"photo":"https://media-cdn.tripadvisor.com/media/photo-o/0c/e3/8e/eb/de-roltrappen-gaan-van.jpg"}
{"_id":1776172,"description":null,"latitude":22.295034,"longitude":114.17006,"rating":8,"phone_number":"+852 2926 8000","address":"尖沙咀广东路2A号","name":"1881 Heritage","location":["尖沙咀","九龙","油尖旺区"],"type":["购物"],"photo":"https://media-cdn.tripadvisor.com/media/photo-o/11/88/35/24/caption.jpg"}
{"_id":3362322,"description":"香港最大型的日式百货公司，每天开始营业时都有员工在门前欢迎客人。高十三层以开放式购物廊设计式的百货公司概念经营，货品包罗万象,包括欧陆名牌男女时装、化妆及护肤品、首饰精品、皮具、电器及家居用品等。","latitude":22.280218,"longitude":114.18455,"rating":8,"phone_number":"852-28338338","address":"铜锣湾轩尼诗道555号(近铜锣湾地铁出口) Causeway Bay, Hong Kong Island","name":"崇光百货(铜锣湾)","location":["湾仔／铜锣湾","香港岛"],"type":["购物"],"photo":"https://media-cdn.tripadvisor.com/media/photo-o/0f/73/64/96/sogo-mall-22.jpg"}
{"_id":548055,"description":"香港湿地公园是一个拥有占地1万平方米的室内展览馆湿地互动世界，有超过60公顷的湿地保护区。在每个星期日和公众假期到香港湿地公园旅游，可以有经验丰富的导游，带你畅游香港湿地公园景点。如果说一个世界级的生态旅游景点要拥有辽阔的自然美景，那么香港湿地公园绝对是其中一个。整个香港湿地公园经过香港规划设计师的独具匠心，让徜徉香港湿地公园的游客能欣赏到各种水的形态、体验水孕育生命的特性。香港湿地公园景点介绍不得不提到的，那就是访客中心。访客中心设有三个主要展览厅，分别展出有文明发展、生物多样化和自然护理的展品。在香港湿地公园游玩请不要跟野鸟不接触保护好自己.香港湿地公园详细介绍：香港湿地公园(HongKongWetlandPark)位于新界天水围的北部建有占地1万平方米的室内展览馆“湿地互动世界”，以及超过60公顷的湿地保护区，是亚洲首个拥有同类型设施的公园，已于5月20日正式向公众开放。每个星期日和公众假期，富生态经验的义务导师会带你进入湿地的奇幻之旅，通过讲解和有趣的活动，将有趣特别的湿地植物和动物展现眼前。拥有辽阔自然美景的香港湿地公园是一个世界级的生态旅游景点，整个湿地公园设野生动物模型展览、仿真湿地场景和娱乐教育设施。徜徉其中游人不仅能够欣赏自然美景，还能通过香港规划设计师匠心独具的设计，欣赏各种水的形态、体验水孕育生命的特质。公园里有近190种雀鸟、40种蜻蜓和超过200种蝴蝶及飞蛾。湿地保护区包括人造湿地和为水禽而重建的生境。坐落于人造湿地的湿地探索中心让游人亲身体验湿地生趣。溪畔漫游径、演替之路、红树林净桥和三间分别位于河畔、鱼塘和泥滩的观鸟屋引领游客走进不同的生境，寻访各式各样的有趣生物。湿地公园的生境包括淡水沼泽、季节性池塘、芦苇床、林地、泥滩和红树林。","latitude":22.315992,"longitude":113.93804,"rating":8,"phone_number":"+852 3152 2666","address":"新界天水围湿地公园路","name":"香港湿地公园","location":["新界","离岛","东涌"],"type":["自然与公园"],"photo":"https://media-cdn.tripadvisor.com/media/photo-s/03/35/a1/69/hong-kong-wetland-park.jpg"}
{"_id":3417522,"description":"希慎广场主要面向年轻消费者，主营 Hollister、Red Valentino 和 Lululemon Athletica 等时尚流行品牌。 四楼的空中花园提供免费休息座位，您可在此欣赏香港美景。","latitude":22.279665,"longitude":114.18398,"rating":8,"phone_number":"+852 2886 7222","address":"铜锣湾轩尼诗道500号","name":"希慎广场","location":["湾仔／铜锣湾","香港岛"],"type":["购物"],"photo":"https://media-cdn.tripadvisor.com/media/photo-o/06/4b/e2/95/hysan-place.jpg"}
{"_id":593052,"description":"位于告士打道柏宁酒店入口对面，是香港最大的公园，建于1955年，以体育运动场地为主，有游泳池、网球场、足球场及其他球类场地。公园入口处有维多利亚女皇的铜像。每天早上可以看到很多香港人在此晨练，逢周日正午，公园内举行颇有特色的时事辩论会──城市论坛。此集会类似于伦敦的海德公园，市民可与演讲者辩论，其过程还会在电视台现场直播。维多利亚公园在每年的元宵节会有香港最大的元宵市场，这里也是中秋赏月的最佳地点","latitude":22.281818,"longitude":114.18815,"rating":8,"phone_number":"+852 2570 6186","address":"铜锣湾兴发街1号 铜锣湾","name":"维多利亚公园","location":["湾仔／铜锣湾","维多利亚公园","香港岛"],"type":["自然与公园"],"photo":"https://media-cdn.tripadvisor.com/media/photo-o/0f/75/db/38/victoria-park-28.jpg"}
{"_id":14965565,"description":null,"latitude":22.283924,"longitude":114.21244,"rating":8,"phone_number":"+852 2562 1151","address":"鲗鱼涌英皇道1046号 益昌楼","name":"怪兽大厦","location":["东区","香港岛"],"type":["景点与地标","其它"],"photo":"https://media-cdn.tripadvisor.com/media/photo-o/16/0e/f1/ca/view-of-the-courtyard.jpg"}
{"_id":487237,"description":"林村许愿树位于香港新界的大埔林村丽，大埔林村丽是香港著名的许愿胜地，坐落于村内建于清朝乾间。林村许愿树实际上是两棵大榕树。因为这两棵树被当地村民视为神灵，而且在人们在其根部燃点香烛祈褔许愿。后来，人们还制作了宝牒并写上了愿望，然后并系上重物，然后并诚心向林村许愿树许愿后便抛上树干，如果不掉下来就代表愿望可以成真。这个让世人坚信的习俗传了出去，吸引了很多香港的居民和来到林村许愿树旅游的人们。由于林村许愿树经常受到宝牒的缠绕，所以变得相当脆弱。政府为了使林村许愿树能够恢复原来的样子，花了大量的时间去救林村许愿树，但是由于许愿树损伤过重，即使尽了全力去保育，还是仍然没有复原的迹象了。即使如此还是有很多到林村许愿树旅游的人们前来参观。","latitude":22.456291,"longitude":114.1427,"rating":7,"phone_number":"+852 2638 3678","address":"大埔区","name":"林村天后庙","location":["新界","大埔"],"type":["景点与地标"],"photo":"https://media-cdn.tripadvisor.com/media/photo-s/00/10/9d/1c/lam-tsuen-wishing-tree.jpg"}
{"_id":3363894,"description":null,"latitude":22.308208,"longitude":114.17048,"rating":7,"phone_number":"+852 2710 6288","address":"弥敦道345号","name":"永安百货(佐敦店)","location":["九龙","油尖旺区","约旦／油麻地"],"type":["购物"],"photo":"https://media-cdn.tripadvisor.com/media/photo-o/15/af/43/6d/20181211-153538-largejpg.jpg"}
{"_id":3459838,"description":null,"latitude":22.297674,"longitude":114.16954,"rating":8,"phone_number":"+852 2735 9208","address":"尖沙咀广东道30号","name":"新港中心","location":["尖沙咀","九龙","油尖旺区"],"type":["购物"],"photo":"https://media-cdn.tripadvisor.com/media/photo-o/0e/30/18/2d/caption.jpg"}
{"_id":2422456,"description":null,"latitude":22.392698,"longitude":113.976685,"rating":7,"phone_number":"+852 2450 7782","address":"新界西北部","name":"屯门市广场","location":["新界","屯门"],"type":["景点与地标","其它"],"photo":"https://media-cdn.tripadvisor.com/media/photo-o/17/1e/22/36/20190411-182637-largejpg.jpg"}
{"_id":3362329,"description":null,"latitude":22.357702,"longitude":114.1067,"rating":8,"phone_number":"852-21867284","address":"青衣青敬路33号(近地铁青衣站)","name":"青衣城","location":["新界","青衣","葵青"],"type":["购物"],"photo":"https://media-cdn.tripadvisor.com/media/daodao/photo-s/03/1d/06/64/caption.jpg"}
{"_id":3362740,"description":null,"latitude":22.38144,"longitude":114.18814,"rating":8,"phone_number":"852-26941111","address":"沙田沙田正街2-8号新城市广场3期(近港铁沙田火车站)","name":"一田百货","location":["新界","沙田"],"type":["购物"],"photo":"https://media-cdn.tripadvisor.com/media/photo-o/0a/4d/1b/05/bbq-ribsnya-di-yata-foodcourt.jpg"}
{"_id":6222865,"description":null,"latitude":22.377407,"longitude":114.30186,"rating":9,"phone_number":"+852 9047 9418","address":"西贡区","name":"盐田仔","location":["新界","西贡"],"type":["景点与地标"],"photo":"https://media-cdn.tripadvisor.com/media/photo-m/1280/11/96/64/0c/pier.jpg"}
{"_id":10168833,"description":null,"latitude":22.336575,"longitude":114.26386,"rating":9,"phone_number":"+852 2358 8888","address":"新界西贡区大埔仔","name":"香港科技大学","location":["新界","西贡"],"type":["景点与地标"],"photo":"https://media-cdn.tripadvisor.com/media/photo-o/0a/dc/0e/fb/hkust-view-from-a-canteen.jpg"}
{"_id":4699752,"description":null,"latitude":22.395754,"longitude":113.97434,"rating":7,"phone_number":"+852 2960 1800","address":"屯门乡事会路83号","name":"屯门V City购物广场","location":["新界","屯门"],"type":["购物"],"photo":"https://media-cdn.tripadvisor.com/media/photo-o/16/92/30/73/20190224-142419-largejpg.jpg"}
{"_id":2241514,"description":null,"latitude":22.328333,"longitude":114.145706,"rating":8,"phone_number":"+852 2131 8181","address":"渡轮口岸 North Point Pier, Hung Hom Pier, Kowloon City Pier","name":"新渡轮","location":["深水埗区","荔枝角","九龙"],"type":["交通"],"photo":"https://media-cdn.tripadvisor.com/media/photo-m/1280/14/17/51/28/speed-boot-der-first.jpg"}
{"_id":593164,"description":"鲤鱼门公园度假村位于港岛柴湾区。度假村内四周翠绿的树木，景色美好的园林，而且环境也很怡人真是一个调剂都市紧张生活的好去处，这里吸引了很多游人。度假村内设有6座带有欧洲式的营舍，每座营舍都有着宽敞的露天楼台并极具特色。度假村内设有浴室、厕所、冷热水喉等。另外，户外还设有1个可供足球、橄榄球、游戏活动等。而且还设有多个康乐室可从事箭艺、健身、舞蹈、乒乓球、柔道、美式桌球等一些活动。另外度假村内的园艺设计也是很不错的。在园景区有芬香花园、桃花园、茶花园、桃花园等。到鲤鱼门公园度假旅游的确是您放松心情的好地方。鲤鱼门公园及度假村详细介绍：鲤鱼门公园度假村位于港岛柴湾区阿公岩与杏花村之间。面积19.46公顷。四周遍植树木，园林景色美好，环境恬静怡人，为烦嚣闹市中的世外桃源，正是调剂都市紧张生活的消闲好去处。园内设有市区首个度假村，村内有6座营舍，均属本世纪初欧洲式建筑物，其中4座为家庭营舍，2座为团体营舍，每晚可供290人住宿。每座营舍皆有宽敞露台，极具特色。营舍内有浴室、厕所、冷热水喉，夏季有冷气供应。该园游乐设施多元化。其中户外设施包括1个可供足球、橄榄球、门球和游戏活动的草地球场，1个可供篮球、排球及单车活动的硬地球场，1个25米长的射箭场，1个网球场，1个绳网阵，1个儿童游乐场，1个遥控模型车场，2个烧烤场及一些休憩处等。室内设施有1座康乐馆，内设有多个康乐室可从事箭艺、舞蹈、健身、滚球、乒乓球、剑击，柔道、美式桌球、棋艺游戏、飞镖及足球游戏机等活动。此外，还设有可供玩羽毛球、小型网球及举行表演节目的礼堂，还有文娱中心、手工艺中心、壁球场、训练中心(6个课室)、饭堂（可容纳300人）、咖啡阁各1个，更有卡拉OK室、电视室、阅读室和聚会室等。园艺设施包括多个园景区和园艺馆。园景区有芬香花园、石山公园、茶花园、桃花园等。公园内有自然径、兰屋、非洲紫罗兰屋及示范苗圃供人浏览。还有一座设有展览厅的园艺馆，提供珍贵植物图片及样本给游人观赏。此外，公园还不时举办一些富有趣味性及教育性的园艺课程。","latitude":22.278742,"longitude":114.23291,"rating":7,"phone_number":"+852 2568 7455","address":"柴湾道75号","name":"鲤鱼门公园及度假村","location":["阿公岩","东区","香港岛"],"type":["自然与公园"],"photo":"https://media-cdn.tripadvisor.com/media/photo-o/01/59/52/45/lei-yue-mun-seafood-district.jpg"}
{"_id":945715,"description":null,"latitude":22.448626,"longitude":114.160286,"rating":2,"phone_number":"+852 2652 1126","address":"大埔","name":"长霞净院","location":["新界","大埔"],"type":["景点与地标"],"photo":"https://media-cdn.tripadvisor.com/media/photo-o/01/0a/88/a2/view-from-the-hillside.jpg"}
{"_id":7812487,"description":null,"latitude":22.28472,"longitude":114.14821,"rating":10,"phone_number":"+852 3105 2118","address":"上环太平山28号","name":"艾普当代艺术","location":["上环","中区","香港岛"],"type":["购物","博物馆"],"photo":"https://media-cdn.tripadvisor.com/media/photo-o/07/8c/11/c4/ap-contemporary.jpg"}
{"_id":10509035,"description":null,"latitude":22.385319,"longitude":114.18781,"rating":8,"phone_number":"+852 2634 0666","address":"沙田乡事会路138号","name":"HomeSquare","location":["新界","沙田"],"type":["购物"],"photo":"https://media-cdn.tripadvisor.com/media/photo-o/0b/dc/86/77/homesquare.jpg"}
{"_id":1902942,"description":null,"latitude":22.445446,"longitude":114.01027,"rating":8,"phone_number":"+852 2617 1959","address":"屏山","name":"屏山邓族文物馆","location":["新界","屏山","元朗"],"type":["博物馆"],"photo":"https://media-cdn.tripadvisor.com/media/photo-o/0b/1c/00/63/ping-shan-tang-clan-gallery.jpg"}
{"_id":2004054,"description":null,"latitude":22.243593,"longitude":114.15134,"rating":8,"phone_number":"+852 3105 0767","address":"南区鸭利洲","name":"香港鸭利洲大桥","location":["香港岛","南区","鸭脷洲邨"],"type":["景点与地标"],"photo":"https://media-cdn.tripadvisor.com/media/photo-o/10/c5/f2/2b/ap-lei-chau-bridge.jpg"}
{"_id":4555370,"description":null,"latitude":22.38621,"longitude":114.20474,"rating":6,"phone_number":"+852 6796 1404","address":"新界沙田银城街","name":"置富第一城","location":["新界","沙田"],"type":["购物"],"photo":"https://media-cdn.tripadvisor.com/media/photo-o/07/0c/16/31/this-is-city-one-seen.jpg"}
{"_id":3363129,"description":null,"latitude":22.286165,"longitude":114.15391,"rating":6,"phone_number":"852-25442688","address":"中環德輔道中189號","name":"先施(中环)","location":["上环","中区","香港岛"],"type":["购物"],"photo":"https://media-cdn.tripadvisor.com/media/photo-o/0f/43/f8/da/caption.jpg"}
{"_id":16731129,"description":null,"latitude":22.321268,"longitude":114.20809,"rating":8,"phone_number":"+852 2100 9800","address":"No.8 Sheung Yuet Rd, Kowloon Bay","name":"零碳天地","location":["九龙湾","九龙","观塘区"],"type":["景点与地标"],"photo":"https://media-cdn.tripadvisor.com/media/photo-m/1280/16/fd/7b/16/20190330-114923-hdr-largejpg.jpg"}
{"_id":537975,"description":"天坛大佛位于昂坪，是一座位于香港大屿山宝莲寺前的木鱼峰上的一个佛像。这个佛像是由202块铜片组成的，并且坐在二百六十八级的石阶上，连基座跟莲花座加起来总高是33.999米，非常高大、神圣，可以说是世界上最大的户外青铜座佛了。在天坛大佛座下有资料馆，可以让来到天坛大佛旅游的人们参观。为了使来此旅游的游客们方便、快捷的到达昂坪，游客可以利用该昂坪360吊车欣赏到天坛大佛的风景。天坛大佛是根据佛经如来而设计的，大佛的面相是参照龙门石窑的毗卢遮那佛，而且衣纹和头饰是参照敦煌石窟，所以天坛大佛有着隋唐佛教时期的造像特色，所以吸引了很多旅游者的到来。昂坪缆车可以说是香港全新的旅游体验了，通过缆车可以让您从崭新的角度观赏到全球最大的户外铜铸的坐佛像--天坛大佛。天坛大佛像高26米，位于昂坪高原的最高点，为缆车站增添了一道优美的风景。天坛大佛的设计是仿照唐代的佛教宗师，海拔有2300公尺左右，大佛周围有群山环绕，其中在大佛内大雄宝殿中的三宝大佛和五百罗汉石刻，以及三脚宝鼎都十分耐看，在大佛内设有素堂，可以供来到大佛旅游的人们享用到地道的素菜，天坛大佛可以说是全球最大的并矗立在宝莲寺，目前大佛已经是中外佛教徒的圣地之一，从而吸引着无数来到大佛旅游的人们。大佛下的博物馆供奉着的舍利子。","latitude":22.254183,"longitude":113.90518,"rating":9,"phone_number":"+852 2985 5248","address":"大屿山","name":"天坛大佛","location":["新界","离岛","大屿山"],"type":["景点与地标"],"photo":"https://media-cdn.tripadvisor.com/media/photo-o/08/b5/cf/14/big-buddha.jpg"}
{"_id":311573,"description":"香港太平山，英语：VictoriaPeak，一般指“太平山山顶”，因而被香港人简称为山顶，太平山原名“硬头山”，古称香炉峰，海拔554米，是香港岛的最高峰。据传嘉庆年间海盗张保仔盘踞港岛时，在山下设东西营盘，并利用该峰作了望台，看见海上有商船经过，就用旗号通知山下营寨，出动船只去截劫，故称扯旗山。1842年，香港正式开始受到英国的统治，英国人为宣示主权，因此于山顶悬挂英国国旗，这则是“扯旗山”来源的另一种说法。后来，英国人以曾担任香港辅政司（任期1868年5月7日--1878年4月4日）的柯士甸将该山易名为柯士甸山，再后，又以维多利亚女王的名字命名为维多利亚山，英文名称则沿用至今。太平山风光秀丽，现在是高级住宅区，也是人们到香港的必游之地。在快到山顶的地方，有个观景台，在这里，可以俯瞰香港及维多利亚港的景色。太平山顶还是观赏香港美妙夜景的最佳去处，其中又以缆车总站附近古色古香的狮子亭和空旷怡人的山顶公园为最佳观赏位置。每当夜幕降临之际，站在太平山上放眼四望，在万千灯火的映照下，港岛和九龙宛如镶嵌在维多利亚港湾的两颗明珠，交相辉映。中环地区，更是高楼林立，壮观无比。太平山以其得天独厚的地理环境和人文景观，成为人们到香港的必游之地。太平山瞭望台西面有卢吉道小径，沿途绿树成荫，鸟语花香，在此可以俯瞰香港及维多利亚港的景色。山顶设有很多专为游客观景的设备。山顶广场眺望日落景色最为理想。适合郊游远足的港岛径亦从这里开始。后建的凌霄阁也是游人喜爱的去处。香港太平山景点怎么样？花1分钟时间，让您的香港太平山之行有备无患。快来加入TripAdvisor。","latitude":22.271349,"longitude":114.149956,"rating":9,"phone_number":"+852 2522 0922","address":"卢吉道1号","name":"太平山山顶","location":["山顶","中区","香港岛"],"type":["景点与地标"],"photo":"https://media-cdn.tripadvisor.com/media/photo-o/0b/c9/50/88/photo3jpg.jpg"}
{"_id":2228870,"description":null,"latitude":22.293758,"longitude":114.16874,"rating":9,"phone_number":"+852 2367 7065","address":"九龙尖沙咀天星码头","name":"天星小轮","location":["尖沙咀","九龙","油尖旺区"],"type":["交通"],"photo":"https://media-cdn.tripadvisor.com/media/photo-o/0d/65/9f/8f/star-ferry.jpg"}
{"_id":624841,"description":"昂坪360是香港的一条缆车，连接着昂坪以及大屿山东涌。提到缆车人们都知道昂坪缆车是世界上营运距离最长的缆车系统了，同时也是柏假山吊车和香港海洋公园的登山缆车之后的第三个缆车系统了。缆车系统目前属于港铁公司叫昂坪360有限公司管理。昂坪360在启用的初期曾多次出现事故，从而也引起了各个传媒和香港立法会的关注，在昂坪缆车发生堕下事故之后香港特区便禁止使用缆车了，之后由于地铁公司收购了缆车公司。在缆车停止半年之后，昂坪360在2007年正式重开，昂坪重开后全新的管理制度也渐渐的受到了人们的好评，也使很多昂坪360旅游者们有着想尝试一下的欲望。坐在昂坪360内可以让您浏览到全程中昂坪360度风景。昂坪360缆车详细介绍：昂坪360缆车全长5.7公里，由大屿山东涌市中心至昂坪，让旅客沿途俯瞰香港国际机场、南中国海、天坛大佛及北大屿山郊野公园的自然美景。由踏上缆车旅程开始，视野豁然开朗，旅客自然进入身心启迪的愉快旅程。单程大约耗时25分钟，比从东涌乘巴士前往昂坪节省约一半的时间。昂坪缆车站紧接着富中国文化色彩的主题市集“昂坪市集”，巿集内除了“与佛同行”、“灵猴影院”及“昂坪茶馆”等三大主题景点外，从“昂坪市集”徒步可达毗邻的及宝莲寺及天坛大佛——世界最高的户外青铜坐佛，荟萃文化及宗教特色。昂坪360保存昂坪原有自然生态环境和特色，“昂坪巿集”更汇聚大屿山风俗和文化，这些都是你游览香港大屿山的首选旅游项目。昂坪360缆车成人往返车费为88元/98元（平时/特别日子），另外还有各种搭配昂坪市集旅游项目的套票可供选择，详情或网上订票可以登录其官方网站查询。昂坪360缆车车票或换票证发售地点：1、昂坪360东涌缆车站及昂坪缆车站售票处；2、港铁香港站、铜锣湾站、尖沙咀站、九龙塘站、红磡站、旺角东站、天水围站(西铁线)及屯门站(西铁线)之客务中心；3、香港各大旅行社注意事项:1、港铁站客务中心售卖的昂坪360来回缆车车票换票证正面将印上一个有效日期，旅客必须在有效期内到昂坪360售票处换取车票方可搭乘缆车。2、当日门票只在昂坪360东涌缆车站及昂坪缆车站售票处发售。3、旅客如希望享用来回缆车之旅，最好于当日下午3点之前抵达昂坪360缆车站搭乘回东涌的回程缆车，以免排队人数过多而赶不上最晚的回程缆车。4、如果你不介意站在缆车上回东涌，你可以稍晚回到昂坪缆车站，直接选择站位队列排队，那样你将能较快乘上缆车。5、昂坪360缆车最近频繁因为有机械故障而暂停开放，所以出发前最好到各港铁车站进行咨询。6、昂坪缆车比一般的缆车爬升坡度大，空中距离长，有精神及心脑血管疾病的人士最好避免乘坐。","latitude":22.290216,"longitude":113.93852,"rating":9,"phone_number":"+852 3666 0606","address":"大屿山东涌达东路11号","name":"昂坪360缆车","location":["新界","离岛","东涌"],"type":["景点与地标","交通"],"photo":"https://media-cdn.tripadvisor.com/media/photo-o/0d/33/38/06/ngong-ping-cable-car.jpg"}
{"_id":320717,"description":"跑马地马场是香港的第一个马场。这里原来是一块湿地，在马场建成之后逐渐建成了不少的建筑物，这些建筑物也使马场成为了全球少有的市区马场，从而也吸引了来此旅游的人们。 跑马地马场曾经经历了一场大火，是香港历史上死亡最惨重的意外性的火灾。跑马地马场的中央位置是游戏场，同时马场还设有5个草地的足球场以及2个人的造草小型足球提供了足球比赛的场地。马场内不仅拥有一条30米的草地跑道外另外还兴建了一些看台、香港赛马博物馆等一些建筑，来到跑马地马场旅游会让您拥有想要驰骋的胸怀。","latitude":22.271858,"longitude":114.18195,"rating":9,"phone_number":"1817","address":"岛湾仔区","name":"跑马地赛马场","location":["湾仔／铜锣湾","跑马地","香港岛"],"type":["赌场","休闲与游戏"],"photo":"https://media-cdn.tripadvisor.com/media/photo-o/0b/81/18/77/0601161826-largejpg.jpg"}
{"_id":543602,"description":"走进童话故事般的梦幻国度，探索7大主题园区，展开一段奇妙、惊险刺激的冒险旅程，和您最爱的迪士尼朋友见面！ 您可以尽情探索各国丛林、游览神秘的博物馆，乘坐矿车飞越矿山，坐上小船环游缤纷世界，甚至坐上火箭，飞越太空！","latitude":22.31292,"longitude":114.0421,"rating":8,"phone_number":"+852 3550 3388","address":"大屿山","name":"香港迪士尼乐园","location":["新界","离岛","愉景湾"],"type":["水上活动与游乐园"],"photo":"https://media-cdn.tripadvisor.com/media/photo-o/12/52/a7/a5/hong-kong-disneyland.jpg"}
{"_id":311604,"description":"香港历史博物馆于1975年创立，历史博物馆无论从外形、色调上看都非常的协调，使其形成了博物馆的组合。如此壮丽的香港历史博物馆吸引了无数来到这里参观旅游的人们这里最受人们欢迎的景点是重点展示香港自然历史和人文历史的阵列。香港历史博物馆是购藏、研究和修复馆藏文物的地方，使香港的文化遗产受到完好好保存。此外，历史博物馆通过馆藏、教育和展览以及推广活动提高了人们对香港历史的发展以及对独特文化遗产的认识和兴趣。相信到香港历史博物馆旅游会让您不虚此行。香港历史博物馆详细介绍：原位于九龙公园内，1998年迁到现址展出香港的出土文物、历史图片、图画和地图等，并定时举办文化活动和展出一些有关香港历史或各国珍贵的历史文物。馆内的“香港故事”展览，占地7000平方米，介绍香港地历史发展。","latitude":22.301949,"longitude":114.17759,"rating":9,"phone_number":"+852 2724 9042","address":"九龙尖沙嘴东漆咸道南100号","name":"香港历史博物馆","location":["尖沙咀","九龙","油尖旺区"],"type":["博物馆"],"photo":"https://media-cdn.tripadvisor.com/media/photo-o/0c/5e/56/13/hong-kong-museum-of-history.jpg"}
{"_id":1992541,"description":null,"latitude":22.28614,"longitude":114.13672,"rating":9,"phone_number":"+852 2548 7102","address":"西环干诺道西屈地街","name":"香港电车（叮叮车）","location":["西环","香港岛","石塘咀","西区"],"type":["交通"],"photo":"https://media-cdn.tripadvisor.com/media/photo-o/03/74/f7/5e/hong-kong-tramways.jpg"}
{"_id":1645928,"description":"\"南莲园池是一座古式园林，却位处繁嚣之城市建设之间，邻近商场和地铁站，\n犹如闹市中之绿洲。南莲园池面积3.5万平方米，山、水、林木和建筑小品的建设和布局都依唐代法度，古意盎然，是一个不可多得的静态休憩公园，现已向公众开放。\"\n","latitude":22.339201,"longitude":114.20444,"rating":9,"phone_number":"+852 3658 9366","address":"钻石山凤德道60号","name":"南莲园池","location":["黄大仙","九龙"],"type":["自然与公园"],"photo":"https://media-cdn.tripadvisor.com/media/photo-o/0c/63/96/f6/nan-lian-garden.jpg"}
{"_id":2136178,"description":"\"“天际100”位于香港最高的环球贸易广场100楼内，是香港最高的室内观景台。在这里，您可以360度鸟瞰整个维多利亚港的美景。\n\n“天际100”的设施：\n• 崭新的多媒体展览：展示香港的历史及文化概况。\n• 行程编排装置：提供香港的旅游信息，让您量身规划自己的观光行程，并发送至个人的电邮信箱，简单方便。\n• 望远镜：设有日景、夜景及烟花模式等特别视觉效果。\n• 高速升降机：从2楼至100楼，只需60秒。\n• 摄影站：配备先进的扩充实境技术（Augmented reality），可让您选择相片背景，或者在照片上加入3D效果。\"\n","latitude":22.303345,"longitude":114.1602,"rating":9,"phone_number":"+852 2613 3888","address":"九龙柯士甸道西1号 环球贸易广场100楼","name":"天际100香港观景台","location":["九龙","油尖旺区"],"type":["景点与地标"],"photo":"https://media-cdn.tripadvisor.com/media/photo-o/10/93/99/f9/f-of-icc-the-tallest.jpg"}
{"_id":437839,"description":"志莲净苑是1934年建立的，苑内的设计是一所僧侣清修的场地。志莲净苑景点建筑历史悠久，建筑规模宏大，而且在海外有很大的影响力。志莲净寺由苇庵法师始建于一九三八年建造的一所传统式的寺院是以供僧众清修的地方，后来因为国内的移民大量的涌进，后来决定暂时挌置建寺的计划，将原来的古老大屋取名为为佛殿，之后又致力于教育和福利服务。他们为附近贫穷的失学儿童提供了受教育的机会，并且收容了一些无依无靠的孤儿和老人们。之后还建立了安老院、露天剧场、公园以及特别的训练中心等，同时也吸引了来此旅游的人们。志莲净苑具有古典建筑的艺术精髓，而且还融合了礼佛、文化推广和旅游于一体，从而成为了香港佛寺建筑的一大亮点，深受志莲净苑旅游者的喜爱。志莲净苑详细介绍：志莲净苑于1934年由苇庵法师建立，原是僧侣清修地，1989年开始重建，并于1998年1月6日重新开放。新设计以唐朝建筑为主，设有：荷花池、天王殿、大雄殿、丹墀、药师殿、钟楼、藏经楼、方丈室、念佛堂及万佛塔等建筑物。","latitude":22.340174,"longitude":114.20484,"rating":9,"phone_number":"+852 2354 1735","address":"钻石山志莲路","name":"志莲净苑","location":["黄大仙","九龙"],"type":["景点与地标","自然与公园"],"photo":"https://media-cdn.tripadvisor.com/media/photo-o/12/eb/dd/0c/pagode.jpg"}
{"_id":317431,"description":"香港海洋公园是一个以海洋为主的大型公园，海洋公园中拥有海洋水族馆和游乐园。在这里游客可以看到有趣的露天游乐场以及海豚表演。另外，海洋公园为您提供了千奇百怪的各类鱼类、高高耸立的摩天塔、无比刺激的樾矿飞车可以说是观光、娱乐的完美组合了。来此旅游会让您看到海洋馆、海涛馆、机动游戏等都很有趣的。而园内还有水上乐园、金鱼馆等历代文物的集古村。公园集中村内有亭台楼阁、庙宇街景等反映了中国深厚的历史文化，如果您对香港的繁华感兴趣的话呢不妨先到香港海洋公园旅游吧！海洋公园详细介绍：海洋公园是东南亚规模最大的娱乐消闲公园之一，占地170英亩。园内的海洋馆、太平洋海岸、鲨鱼馆等展现大海的奥秘，百鸟居、蝴蝶屋等生动诱人，极速之旅、冲天摇摆船等挑战胆量，还有吸引小朋友的儿童王国、超动感影院、大熊猫馆等等，还可以在海洋剧场观看有趣的海豚、海狮表演。花上一天的时间在海洋公园里狂热一番，很值得。另外，在园内搭缆车也是项非常写意的活动，坐上在二百零五米高空上欣赏南中国海迷人景色，远外闪烁细沙，波光鳞影，仰望白云浮游，优哉悠哉！当离开园区时，送你离去的可是全球第二长的户外扶手电梯。","latitude":22.234632,"longitude":114.17217,"rating":9,"phone_number":"+852 3923 2323","address":"仔黄竹坑道180号","name":"香港海洋公园","location":["海湾","香港岛","南区"],"type":["动物园与水族馆","水上活动与游乐园","自然与公园"],"photo":"https://media-cdn.tripadvisor.com/media/photo-o/06/33/88/50/taman-hiburan-ocean-park.jpg"}
{"_id":593160,"description":"万福寺位于香港新界沙田的火车站对面，最初是建于1950年，在1956年完工。万福寺的创建人是月溪法师，法师原来是在此创办佛学院的，后来因为风波搁置，最后用作万福寺的兴建。万福寺除了主庙之外，另外还有三座比较小的庙宇。万福寺内的建筑风格、布局已成为人们来到万福寺旅游必看的景点了。万福寺内院舍分高和低的不同建筑群，低层中包括一些万佛塔、韦驮亭、十八罗汉阁、万佛殿等。在万佛殿内所供奉的佛像姿态万千，形态各异，非常的壮观。在万福寺中最吸引万佛寺旅游者们的是寺中的高层建筑观音殿、淮提殿、玉皇殿等。香港万佛寺详细介绍：以供奉一万三千多尊大小佛像而得名，驰名海外。寺内还有玉皇殿、准提殿、弥陀殿、万佛宝塔及十八罗汉塑像等。此寺供奉的月溪法师肉身漆像，是香港仅有的一座。交通路线:地铁沙田站左面出口沿路牌指示向山上走，即可到达。","latitude":22.387394,"longitude":114.18498,"rating":9,"phone_number":"+852 2691 1067","address":"沙田","name":"万佛寺","location":["新界","沙田"],"type":["景点与地标"],"photo":"https://media-cdn.tripadvisor.com/media/photo-o/01/00/13/a9/glorious-blue-skies-in.jpg"}
{"_id":593057,"description":"尖沙咀海滨长廊是见证这里城市活力的地方，有风、有水同时也是香港独有的风情画。尖沙咀海滨长廊是每一个来到此旅游的人必去的地方。早之前举行了海滨美化长廊的公开设计比赛，在比赛中胜出者是将长廊瞬间变身为一条龙。这里可以让您了解到城市的精神面貌，长廊中的美化工程是另一个重点，建筑师都是以钟楼为起点的，在这里建造了一个两楼层高的玻璃上盖，并以木条子作屏障，让安坐的人与行人之间互不相扰。尖沙咀海滨长廊一带加添了放有座椅的平台，让水光十色的风景都倒映在游人的眼里，晚上还可以在这里欣赏灯光汇演。在尖沙咀海滨长廊旅游的确是一个多么让人回味无穷的夜晚。尖沙咀海滨长廊详细介绍：尖沙咀海滨公园（又称尖沙咀海滨长廊）是香港的一个海滨公园，位于九龙尖沙咀东海旁，可看到维多利亚港海景。公园全长1.6公里，西至尖沙咀天星码头，东至红磡海底隧道九龙入口。公园现时由香港康乐及文化事务署管理。","latitude":22.29439,"longitude":114.17253,"rating":8,"phone_number":"+852 2807 6543","address":"尖沙咀","name":"尖沙咀海滨长廊","location":["尖沙咀","九龙","油尖旺区"],"type":["景点与地标"],"photo":"https://media-cdn.tripadvisor.com/media/photo-o/05/57/a5/13/tsim-sha-tsui-promenade.jpg"}
{"_id":537989,"description":"南丫岛位于香港岛的西南部，与香港岛和大屿山是香港的三大岛屿。在南丫岛以山地居多，在岛上不许行车，到处都是绿色的植物，有香蕉树、棕榈树等，再加上蟋蟀与青蛙的叫声交相辉映更增添了农园的气息，而且您在这里旅游能够让您采集一些蔬菜，可以到其他的岛上看景点，玩海滩。到南丫岛旅游千万不要错过独具特色的点：榕树湾、索罟湾、深湾等。考古学家曾经认为南丫岛是华南最古老的文化遗址，是渔民的居住地。南丫岛以恬静、清新的氛围吸引着无数诗人、游者以及其他逃避世俗的人们，而且还有很多的外籍工程师也搬到了南丫岛一带定居。南丫岛详细介绍：南丫岛，香港的一个岛名，也叫做博寮洲。行政上属于香港十八区之中的离岛区。南丫岛古称为“舶寮洲”，于唐朝宋朝之时曾为停泊往广州贸易的外国船只之地，后雅化为“博寮洲”。到了近代，由于岛屿位于香港之南，形状像汉字的“丫”，因此得名为“南丫岛”，并逐渐取代“博寮洲”一名。1964年，南丫北段乡事委员会曾向南约理民府建议将“南丫”改名为“南雅”，但不获接纳。南丫岛，位于香港岛的西南面，旧称为博寮洲，面积约13.55平方公里，仅次大屿山和香港岛，是全香港第三大岛屿。南丫岛东西两边均为海峡：分别为东面的东博寮海峡面对香港岛南区，和西博寮海峡面对长洲，南面为中国南海，再南一点到达柦杆群岛。全岛以山地居多，最高点为南面的山地塘，在榕树湾和索罟湾有一些平地。西北部有一个人工填海区——菠萝咀。岛上不许行车，到处都是绿色的植物。这里种植了许多香蕉树，青蛙与蟋蟀交相呼应，棕榈树则为人们提供树荫。一些环岛漫游能让你采一些蔬菜。大部分船只都要先到榕树湾村，从那里出发可以到许多岛上的景点与海滩。南丫岛居民有6000人，大多住在北面地势较平坦、可用作耕地的榕树湾一带。不过亦有人住在南面的索罟湾。自1970年代香港经济起飞，很多年轻的南丫岛居民从岛搬出香港谋生，南丫岛一如其他乡村发展般，剩下年长的一辈在岛内。1990年香港电灯有限公司在岛的西北部菠萝咀填海建立发电厂后，较多外籍的工程师搬到南丫岛榕树湾一带聚居，区内渐有一些西式茶座﹑餐厅，岛上中西文化交汇。1997年香港回归后，因为外籍人士在香港工作需要签证，南丫岛内有部分外籍人士迁离，但仍然不减岛内的洋化气息。·榕树湾：区内有特色的西式茶座和餐厅，横街窄巷的村屋亦充满洋化气息。·鹿洲天后庙：位于南丫岛东边的鹿洲村村东海滨。建于清同治7年（1868年），属三殿庙宇，正殿奉天后娘娘，左边为慈母殿﹑右边为真君殿。庙内设有清同治年间制的铜钟和香案。·索罟湾：昔日为一天然渔港。现因人口迁出令该区较榕树湾荒芜。天后庙位于村口，相传建庙达150年以上，庙内置有清朝的聚宝盆和古钟。·洪圣爷海滩：一个小型泳滩，附近有洪圣庙。·深湾：位于岛南部一个深凹的海湾，面对南中国海，这里是野生绿海龟的产卵地，香港政府亦将该海湾沙地划为限制地区，于每年6月1日至10月31日的绿海龟繁殖季节禁止人们进入和破坏。考古学家认为南丫岛是华南最古老的文化遗址。这里一直是渔民的居住地，它的恬静氛围吸引着无数诗人、艺术家，以及其他希望逃避都市竞争的人们。岛上主要的街道：榕树湾大街榕树湾后街索罟湾第一街公共交通：南丫岛对外交通完全依靠渡轮。港九小轮：有三条路线往返南丫岛与港岛之间。·榕树湾─中环·索罟湾─中环·榕树湾（经北角村）─香港仔全记渡：有一条路线往返南丫岛与港岛之间。·香港仔─模达湾─索罟湾","latitude":22.215492,"longitude":114.12164,"rating":9,"phone_number":"+852 2982 8100","address":"Lamma Island, Islands Distict","name":"南丫岛","location":["新界","离岛","南丫岛"],"type":["自然与公园","户外活动"],"photo":"https://media-cdn.tripadvisor.com/media/photo-o/0a/61/a6/39/caption.jpg"}
{"_id":311565,"description":"香港公园位于香港中区红棉路，是具有现代化设计思想的一个杰出的例子。在香港公园中最引人注意的是以流水为主题的并且利用人造山砌成的瀑布、水池、溪流等使园内不同的风景联系在了一起。这里如此美妙的景象您是否也想到香港公园去看一看呢？来这里旅游尤其不要错过军营文物建筑如：罗连信楼、伟华楼、卡素楼等，公园的中心位置可以看到旧军营网球场改建之后形成的人工湖和瀑布。香港公园景点非常的丰富，其中观鸟园、温室、体育馆、钟楼、中央花园等，香港公园恬静、自然的清新感觉是您放飞心情的理想之所，让您置身在这样的氛围中能够感受到旅游的乐趣。香港公园详细介绍：香港公园位于中区红棉路，邻近金钟地铁站。此园有模拟热带雨林环境的观鸟园，饲养了一百五十多种雀鸟。园内设有两百米长木桥，高及树冠，蜿蜒全园，游人可漫步欣赏。而富水景特色的梯级花园、供即兴表演的花园广场及雕塑、陶瓷和板画中心都给游人耳目一新的感觉。","latitude":22.27764,"longitude":114.1617,"rating":9,"phone_number":"+852 2521 5041","address":"红棉路19号","name":"香港公园","location":["中区","中环","香港岛"],"type":["自然与公园"],"photo":"https://media-cdn.tripadvisor.com/media/photo-o/01/5f/d8/5b/hong-kong-park.jpg"}
{"_id":2050638,"description":"西贡位于新界东部的西贡半岛，一条小街贯穿其中，沿着海岸蜿蜒开去。小街窄而长，大约有1公里，中间设有一处雕梁画栋的牌楼，算是西贡中心的标志建筑。街边鳞次栉比的，就是一家接一家的傍海餐馆，它们都以烹饪海鲜而闻名。这些餐馆简陋且传统，乍看起来更像是香港早年的大排档。然而，正是这些貌不惊人的小餐馆，却预示着一段美味之旅的开始。这绝对不是越南的西贡，因为在香港也有个名叫西贡的地方。虽然此西贡非彼西贡，但在这里同样可以享受到东南亚风味的美食，越南料理、泰国料理、马来西亚料理都是香港西贡的看家菜，当然，在这里最最出名的，还是那些花样翻新、令人垂涎的海鲜大餐。西贡位于新界东部，风景秀丽，许多当地人都喜欢到这儿度周末。在这里观赏景色的最佳方法是雇一条小船，就可以坐船环游岛屿（大约150港币）。还可以漫步沙滩或者登山远足。一到周末假日，结伴的年轻人和家庭络绎而至。西贡从几百年以前开始就是附近的客人做生意的中心，小街道道路狭窄，宛如迷宫，保留了浓厚的昔日的面貌。曾为小渔村的西贡60年代由于西贡东面的万宜水库的建设而导致水上生活者们的移居，人口大增，现在成为香港人度假的热点地区，大受欢迎。西贡街道规模较小，在海岸线的市场街可以观赏一排排佝水族馆一样的活鱼店，有巨大的五彩龙虾、螃蟹、贝类、鱼类，也可以选定想吃的东西，带到餐馆里来一顿海鲜菜。最近这里经常能见到喝着葡萄酒，吃着海鲜的欧美客人。西贡又称西贡墟，位于香港新界东部的西贡区西贡半岛，面向西贡海，风景宜人，有“香港后花园”的美誉。由于西贡市地处各乡村的中心，因而附近的地区也称为“西贡”。西贡市早在14世纪已经有渔民居住，原本是一个寂寂无名的渔村，1920年代西贡市开始成为西贡各区村民到来进行买卖的地方。由于西贡市本身是一个渔村，渔民经常在此聚集，因而逐渐发展成一个海鲜胜地。去香港西贡怎么玩？看1500万网友为您推荐的香港西贡观光路线，最全最真实的香港西贡观光点评，尽在TripAdvisor。","latitude":22.407934,"longitude":114.321915,"rating":9,"phone_number":"+852 9667 7186","address":"新界东西贡区 Upper Floor, East Garden Plaza, Section A, 66 Yi Chun Street, Sai Kung, New Territories","name":"西贡","location":["新界","西贡"],"type":["景点与地标","其它"],"photo":"https://media-cdn.tripadvisor.com/media/photo-o/10/23/7d/38/fb-img-1496039660522.jpg"}
{"_id":2050639,"description":"\"赤柱市集 (赤柱)\n赤柱市集是选购特色礼品的宝地。在这个旧渔村的古老巷弄里，各式小商店及货摊鳞次栉比，售卖的商品五花八门，包括中国工艺品、丝织品、古玩珍品及加大码的服饰等，让人目不暇接。\"\n","latitude":22.219887,"longitude":114.20945,"rating":8,"phone_number":"+852 2623 6536","address":"岛南区","name":"赤柱","location":["赤柱","香港岛","南区"],"type":["购物","景点与地标"],"photo":"https://media-cdn.tripadvisor.com/media/photo-o/0d/09/10/e6/view-of-the-stanley-harbor.jpg"}
{"_id":506206,"description":"香港尖沙嘴位于九龙南部，是维多利亚港的海滨。在香港尖沙嘴内集中了一些购物中心、商店、餐厅以及办公大楼等，你无时无刻都可以看到香港尖沙嘴车水马龙的人群。在香港尖沙嘴内弥敦道是整个尖沙嘴的主要大街，和周围的街道、商店相林立。香港尖沙嘴内包括了香港文化中心、香港艺术馆以及香港太空馆等。香港太空馆是一座规模大且现代化水平高的太空科学馆了，而且太空馆的外表是呈一座很有风格的圆型建筑，馆内设太阳厅、展览厅、天象厅等，另外还有自动放映的闭路电视和电影可以向游客介绍地球的历史、人类的起源古代的天文学家以及现代的人造卫星等。整个天象馆就如同宇宙天体一般，来到香港尖沙嘴旅游的人们都会到这里，可以让您如同在太空漫步一般。在这里可以让您一饱维多利亚港的全景。香港尖沙嘴的一侧有个钟楼，是不应错过的景点。香港尖沙咀详细介绍：尖沙嘴位于九龙南端，维多利亚港海滨。区内集中了大量的商店购物中心餐厅和办工大楼任何时间都是车水马龙挤满了市民及旅客.这一带更是高级旅馆的集中地。弥敦道是贯穿尖沙嘴的主要大街，和其周围的街道商店林立，香港文化中心、香港太空馆和香港艺术馆都在尖沙嘴。太空馆是一座规模大、现代化水平高的太空科学馆，馆的外表是一座别具风格的大型圆型建筑，馆内设太阳厅、展览厅、天象厅等，内有各种图表、模型和精密仪器，还有自动放映的闭路电视和电影等，向游客介绍天体的形成、地球的历史、人类的起源、世界的气候、古代的天文学家，直至现代的人造卫星和载人火箭宇宙飞船等。游人可以通过各种设备观赏到日蚀、月蚀的美妙景色；可以在太空隧道里亲眼看到运行的宇宙飞船模型，以及宇航员飘在空中失重的状况。整个天象馆如同宇宙天体，游客到此如置身太空漫步一般。在这里可饱览维多利亚港的全景，是香港另一经典的明信片景致。尖沙嘴一侧有钟楼，香港文化中心(香港年轻人的至爱婚姻注册地，周末能见到许多新人在此留影，简单大方的婚纱，及素雅的捧花总能吸引游人的目光)。","latitude":22.298763,"longitude":114.17175,"rating":9,"phone_number":"+852 6131 7558","address":"九龙","name":"尖沙咀","location":["尖沙咀","九龙","油尖旺区"],"type":["景点与地标","其它"],"photo":"https://media-cdn.tripadvisor.com/media/photo-o/01/57/9c/9a/tsim-sha-tsui.jpg"}
{"_id":1367748,"description":"长洲岛在行政上是香港十八区之中的离岛区。长洲岛的岛形非常的奇特，岛形狭长而且两头比较大，中间又比较细，因此被成为长洲岛。长洲岛位于香港的西南面，是离岛区人口最稠密的岛屿了。长洲岛早在香港岛和九龙岛繁荣之前因渔港以及贸易船只而停留在此使这里成为繁荣地。后来贸易中心被转移到了香港和九龙，但是渔港的面目仍然没有一丝的变化，还是依然保存着渔港原先的面貌了，从而这里也已经成为了长洲岛景点了。长洲岛不仅自然风光无限优美，而且有长洲石刻、新兴街、北社街等一些人文景观。虽然，长洲岛的面积不大，再岛上只能行走，在市街对面都是以渡轮码头的街道为中心，街上古来的店铺、路边密集的摊位看起来很热闹，吸引了很多来长洲岛旅游的人们。","latitude":22.27789,"longitude":114.16126,"rating":9,"phone_number":"+852 2981 0606","address":"西南面","name":"长洲","location":["中区","中环","香港岛"],"type":["自然与公园"],"photo":"https://media-cdn.tripadvisor.com/media/photo-m/1280/17/a5/7f/dc/20190517-143236-largejpg.jpg"}
{"_id":311609,"description":"啬色园黄大仙祠内供奉着相传有求必应的黄大仙，是香港著名的庙宇。啬色园黄大仙祠的建筑极具庄严、雄伟的传统特色，从而散发出安静平和的修心气息，是远离都市凡尘中的一方净土。据了解，啬色园黄大仙祠内的黄大仙原名黄初平，年轻时学道不食人间烟火，在40年后黄大仙的兄弟来到山中寻找他的时候，黄大仙能够指石变羊，以后黄大仙兄弟俩一起修炼且双双成仙了。啬色园黄大仙祠的建筑的金碧辉煌，极具中国传统文化的内涵，一直以来深受啬色园黄大仙祠旅游者的钦佩。在啬色园黄大仙祠外的大牌坊上题有“赤松黄大仙祠”几个字，苍劲而有力，在解签的摊位前立着另外一个牌坊“第一洞天”的字样映入我眼帘这些牌坊的意义非凡。黄大仙祠是香港九龙有名的胜迹之一，这里有着一段鲜为人知的故事。在过去黄大仙被人们称之为赤松仙子，主要以行医济世而广为人知，黄大仙的签据人说是“有求必应”的，人们都说他的签文十分的灵验。黄大仙祠是香港唯一一所可以举行道教婚礼的地方。到此旅游的人们都会称赞黄大仙祠建筑的宏伟，墙面都是金碧辉煌的，极具了中国古典特色。庙宇占地面积也非常广，除了其中的主殿大雄宝殿以外，还有三圣堂、从心苑等，其中牌坊的建筑风格都是最具特色的，到黄大仙祠旅游会让您体验到中国特色的传统文化。啬色园黄大仙祠详细介绍：黄大仙祠是香港九龙有名的胜迹之一。另外，黄大仙祠有着一段鲜为人知的故事。在过去黄大仙被人们称之为赤松仙子，主要以行医济世而广为人知，黄大仙的签据人说是“有求必应”的，人们都说他的签文十分的灵验。此外，黄大仙祠也是香港唯一的一所可以举行道教婚礼的地方。来到黄大仙祠旅游的人们都会称赞黄大仙祠景点建筑的宏伟，墙面都是金碧辉煌的，极具了中国古典特色。黄大仙祠的庙宇占地面积也非常广，除了其中的主殿大雄宝殿以外，还有三圣堂、从心苑等，其中牌坊的建筑风格都是最具特色的，到黄大仙祠旅游会让您体验到中国特色的传统文化。原名啬色园，是香火最旺的庙宇之一。祠始建于1921年，经过几十年的悉心经营，整个殿堂金碧辉煌，建筑雄伟。庙宇供奉的黄大仙，据说有求必应，求签者多在殿前膜拜，附近有解签的摊子，为人求神问卜，特别是农历新年或节日期间，信男善女们蜂拥而至，香火特别旺。祠旁设有小公园，设计得宜，精巧玲珑，颇具园林景色。旁侧的九龙壁，是仿照北京故宫而制。","latitude":22.342726,"longitude":114.19321,"rating":8,"phone_number":"+852 2327 8141","address":"九龙竹园道2号","name":"黄大仙祠","location":["黄大仙","九龙"],"type":["景点与地标"],"photo":"https://media-cdn.tripadvisor.com/media/photo-o/0d/e5/60/83/wish-pond.jpg"}
{"_id":311605,"description":"1992年开幕，位于尖沙咀东部。馆中有取自世界各地及本地创作的展品约500多件，分布在五个主要展览厅，即展览简介、科学、生命科学、科技及为三岁至七岁儿童设计的儿童天地。其中60％的展品可让观众触摸及操作，可以增加参观者对科学地兴趣，特别适合亲子同游。","latitude":22.301146,"longitude":114.17739,"rating":8,"phone_number":"+852 2732 3232","address":"尖沙咀科学馆道2号","name":"香港科学馆","location":["尖沙咀","九龙","油尖旺区"],"type":["博物馆"],"photo":"https://media-cdn.tripadvisor.com/media/photo-o/0d/65/95/9c/musee-des-sciences-de.jpg"}
{"_id":593158,"description":"旺角位于香港的油尖旺区，即九龙西部。新旧楼宇林立；旧住宅楼宇地铺多为商店或餐厅。以弥敦道为界，购物中心集中在东面，住宅区在西面。交通十分发逹，有巴士及港铁（东铁线、荃湾线和观塘线），更有专线小巴通宵行驶。假日时弥敦道一带经常水泄不通。旺角的人口密度极高，平均密度为每平方公里13万人，现时其地积比率约4倍。旺角位于弥敦道北端，属九龙早期发展的地区，以避风塘及庙宇最为驰名。这里留有不少旧日痕迹，区内大街小巷都不难找到老式饼店，神龛店，麻雀馆等传统店铺，商号较多为小型作业，区内有香港最古老的一些街道，步行乃是最佳的寻幽探秘方式。那种地道的风味与弥敦道的摩登景象全然不同。邻近的旺角是香港人流最旺盛的地区，是本地人购物的热门地点，不少商店及饭馆均通宵营业，全区繁华拥挤，银行，商业大厦林立，店铺格局小巧精致，弥敦道一段更是精华所在。庙街从佐敦道伸展至油麻地文明里，每晚七时为变身成灯火通明的热闹夜市，数以百计的摊子摆卖衣饰，电器，手表等平价货品。由于很多摊子售卖男仕衣服，故有（男人街）之俗称，接近天后庙一带有算命占卜和地摊摆挡，不远处还有街头戏曲表演，热闹处真如平民式夜总会啊……浏览街道两旁，旅客可发掘真正的香港市区生活面貌。旺角位于香港的油尖旺区，位于九龙半岛中部。新旧楼宇林立；旧住宅楼宇地铺多为商店或餐厅。以弥敦道为界，购物中心集中在东面，住宅区在西面。旺角交通十分发达，有公共汽车、火车、地下铁，更有专线小巴通宵行驶。假日时弥敦道以东一带常挤得水泄不通。旺角古时称为芒角，因为当地芒草丛生，地形像一只牛角伸入海里，该处被称为芒角咀，而附近的村落便得名芒角村。2004年5月在闹市通菜街和豉油街交界的一个深度只有两米的渠务地盘里发掘出大量东汉、晋朝和唐朝陶器和制陶工具，显示在千多年前，旺角已有人居住。TripAdvisor首发旺角介绍，请勿转载。如果你觉得旺角不错，叫上朋友一起来吧。","latitude":22.37395,"longitude":114.10169,"rating":8,"phone_number":"+852 5239 1006","address":"九龙","name":"旺角","location":["新界","荃湾"],"type":["景点与地标","其它"],"photo":"https://media-cdn.tripadvisor.com/media/photo-o/11/0f/90/e9/mong-kok.jpg"}
{"_id":447111,"description":"宝莲寺位于香港大屿山的中部。宝莲寺四面群山环抱，峰峦起伏，景色迷人，而且南凤凰山成为了旅游者观日出的好地方。宝莲寺建立于1924年，因建筑规模宏大，而且地形环境非常之优美，享有“南天佛国”之美称同时也是香港四大禅林之首。其中的主殿供奉三世佛，分别代表前世、今生和来世。宝莲寺前有一座三间四柱三楼的冲天柱式石牌楼。在牌坊的后面有一个林荫小道通向寺门，而且宝莲座的寺门形式很具有特点。宝莲寺中最吸引游者的是天坛大佛。天坛大佛是全球最大的青铜座佛位，佛像约重250公吨，佛面淘金4斤馀。来到宝莲寺旅游千万不要忘记来到天坛大佛看看。宝莲禅寺详细介绍：梅窝又名银矿湾，根据从前山谷里两个银矿命名，宋帝昺及侍从曾经在此避难，梅窝也因而沾上光彩。现在，旧墟已被新的建筑物包围。渡轮码头附近有贩售小吃的商店，过了小河即是旧墟，也是大屿山的水陆交通要枢，渡轮码头外便是巴士总站，附近有商店，菜馆及市场。沿海傍向前行，便是银矿湾海滩的所在。","latitude":22.25549,"longitude":113.90755,"rating":9,"phone_number":"+86 903 509 4316","address":"大屿山","name":"宝莲禅寺","location":["新界","离岛","大屿山"],"type":["景点与地标","自然与公园"],"photo":"https://media-cdn.tripadvisor.com/media/photo-m/1280/13/91/8d/15/caption.jpg"}
{"_id":6384098,"description":null,"latitude":22.275858,"longitude":114.16532,"rating":9,"phone_number":"+852 2103 9511","address":"金钟正义道9号","name":"亚洲协会香港中心","location":["香港岛","大佛口"],"type":["购物","博物馆"],"photo":"https://media-cdn.tripadvisor.com/media/photo-o/0e/ab/67/af/calm-oasis.jpg"}
{"_id":593197,"description":"香港铁路博物馆是一座有着独特风格的金字顶型的博物馆，博物馆中专门介绍九广铁路历史。香港铁路博物馆的前身是旧大埔墟火车站是当时九广铁路重要车站之一。之后由于1980年引进了电气式火车，所以之后的大埔火车站关闭了，后来在1984年的时候原址被列为法定古迹，而且并被修建成了博物馆。铁路博物馆中至今保留了6辆历史中的车卡、机动以及手动的各一辆，这些具有划时代意义的道路开拓的藏品是每一个旅游者必看之处。在1997年香港铁路博物馆内增添了沙头角支线曾经使用过的窄轨蒸汽火车头，而且之后也增添了一个名为“压力山大爵士号”的机车使香港铁路博物馆中增添了不少来到香港铁路博物馆旅游的人们。香港铁路博物馆详细介绍：香港铁路博物馆位于旧大埔墟火车站，占地不多，于1913年启用。建筑物以传统中国式设计，屋顶以陶器作为装饰，而墙上的壁画更是精致。火车站原有的候车室、售票处和外墙装饰仍守好无缺，展览室陈列了相当多令人怀旧之情油然而生的古老照片。游客还可登上月台上的火车厢，厢内展览了一些与铁路相关的物品。","latitude":22.447844,"longitude":114.164276,"rating":8,"phone_number":"+852 2653 3455","address":"大埔大埔墟崇德街13号","name":"香港铁路博物馆","location":["新界","大埔","大埔墟"],"type":["博物馆"],"photo":"https://media-cdn.tripadvisor.com/media/photo-w/01/5b/0c/4e/museum-building.jpg"}
{"_id":7317246,"description":null,"latitude":22.419731,"longitude":114.20512,"rating":9,"phone_number":"+852 3943 7000","address":"新界沙田","name":"香港中文大学","location":["新界","沙田"],"type":["景点与地标"],"photo":"https://media-cdn.tripadvisor.com/media/daodao/photo-s/07/91/27/94/caption.jpg"}
{"_id":593182,"description":"九龙清真寺是中国香港地区伊斯兰教的清真寺。清真寺位于九龙尖沙嘴弥尔敦道，也是香港较具规模的大寺。九龙清真寺始建于1896年，之后在1902年进行了修整，在1980年清真寺又出现了多出倒塌，香港伊斯兰团体以及穆斯林人又开始了集资重建。清真寺的建筑风格也非常的独特，是一个三层的楼房建筑，屋顶是呈圆拱形的，在两边还矗立着对称的望月楼，外面是用大理石贴。清真寺底层还会设有大礼堂、图书馆、会议室、青年文化进修中心等，在九龙清真寺二楼有礼拜殿，三楼有妇女礼拜殿。多么具有艺术的典雅、亮丽的风格使很多来到九龙清真寺旅游的人们赞不绝口。整个九龙清真寺给人感觉精致、壮观富有现代阿拉伯伊斯兰建筑的特色。","latitude":22.298767,"longitude":114.17217,"rating":8,"phone_number":"+852 2724 0095","address":"九龙弥敦道105号","name":"九龙清真寺","location":["尖沙咀","九龙","油尖旺区"],"type":["景点与地标"],"photo":"https://media-cdn.tripadvisor.com/media/photo-o/11/fc/0e/e9/20171117-103433-largejpg.jpg"}
{"_id":593041,"description":null,"latitude":22.287382,"longitude":114.15046,"rating":6,"phone_number":"+852 6029 2675","address":"岛中区德辅道","name":"西港城","location":["上环","中区","香港岛"],"type":["购物"],"photo":"https://media-cdn.tripadvisor.com/media/photo-o/0d/39/ce/bf/caption.jpg"}
{"_id":3362853,"description":null,"latitude":22.21906,"longitude":114.209854,"rating":8,"phone_number":"+852 2813 4623","address":"赤柱佳美道23号","name":"赤柱广场","location":["赤柱","香港岛","南区"],"type":["购物"],"photo":"https://media-cdn.tripadvisor.com/media/photo-o/0c/f3/9b/c6/outlook.jpg"}
{"_id":2238457,"description":null,"latitude":22.282043,"longitude":114.15106,"rating":8,"phone_number":"+852 2367 6373","address":"中环半山卫城道7号","name":"孙中山纪念馆","location":["中区","半山区","香港岛"],"type":["景点与地标","博物馆"],"photo":"https://media-cdn.tripadvisor.com/media/photo-o/0c/c5/11/c7/caption.jpg"}
{"_id":7629553,"description":null,"latitude":22.270338,"longitude":114.14988,"rating":8,"phone_number":"+852 2813 1686","address":"山顶道118号 山顶广场3层","name":"香港特丽爱3D美术馆","location":["山顶","中区","香港岛"],"type":["博物馆","水上活动与游乐园"],"photo":"https://media-cdn.tripadvisor.com/media/photo-o/10/0c/6b/29/caption.jpg"}
{"_id":3362858,"description":null,"latitude":22.330936,"longitude":114.160164,"rating":7,"phone_number":"+852 2360 0982","address":"深水埗钦州街37号","name":"西九龙中心","location":["深水埗区","九龙"],"type":["购物"],"photo":"https://media-cdn.tripadvisor.com/media/photo-o/0b/c0/34/5f/caption.jpg"}
{"_id":2003136,"description":null,"latitude":22.467724,"longitude":113.983185,"rating":8,"phone_number":"+852 2472 3682","address":"元朗区西部","name":"流浮山","location":["新界","元朗"],"type":["自然与公园"],"photo":"https://media-cdn.tripadvisor.com/media/photo-w/09/1d/b6/53/lau-fau-shan.jpg"}
{"_id":317451,"description":"黄埔新天地是由十一个商场组合而成，其中包括时尚坊、黄埔号、聚宝坊、家居庭以及中药城等，其中有部分是黄埔新天地的专题商场，商场汇集了二百多间各种类型的商铺、百货公司以及娱乐场所等，这给来到黄埔新天地旅游的人们带来了极大的乐趣。无论是吃喝玩乐，还是消闲购物都给您提供了极大的方便。黄埔新天地精彩的美食引来了无数国内游客来到这里尽情享受着购物的乐趣，希望这里也是您国内旅游的首选。到黄埔新天地旅游途中您会发现蔡澜美食坊，不仅集聚了整个香港最驰名而且也是最具特色的传统美食，会让您的旅途荟萃香港传统美食的精髓。黄埔新天地详细介绍：黄埔新天地位于红磡黄埔花园，由这个大型屋苑中十一个商场组合而成，包括时尚坊、聚宝坊、黄埔号、屏幕圈、家居庭及中药城等，其中部分更是专题的商场，合共占地超过140万平方呎，汇集了超过二百多间各类型的商铺、食肆、百货公司及娱乐场所等。无论是吃喝玩乐，还是消闲购物，都一应俱全。国内游客要享受购物的新乐趣，位于红磡黄埔花园的黄埔新天地，绝对是国内游客的不二之选。其中特别一提的是黄埔花园的「黄埔号」拥有独特的邮轮外型，可说是黄埔花园的地标。而「屏幕圈」内除了戏院外，还设有蔡澜美食坊。食坊设有十四间美食店，每一间食店均由蔡澜先生亲自挑选，能代表各款香港的地道美食，希望让每一位游客能品尝最佳美食，因此吸引了不少中外食家及国内外游客慕名而来。黄埔新天地不仅是一个购物饮食商场，更是一个娱乐及消闲理想之选。","latitude":22.304108,"longitude":114.18984,"rating":8,"phone_number":"+852 2121 8344","address":"九龙红勘道黄埔花园","name":"黄埔新天地","location":["九龙城区","九龙","黄埔"],"type":["购物"],"photo":"https://media-cdn.tripadvisor.com/media/photo-o/11/01/ad/97/caption.jpg"}
{"_id":450875,"description":"阿伯丁港口是一个港口性质的河口海港。阿伯丁港口位于英国苏格兰海岸，在迪河与当河的入海口处，同时也是香港东北部的主要的商港之一。阿伯丁港口属于温带海洋性的气候，而且还盛行西南风，空气都比较潮湿。阿伯丁港口景点要属各种各样的装卸设备了有：吊以及抓斗吊等一些设备。阿伯丁港口当局为发展港口运输能力进行投资并改进了码头的设施，经过了新码头长500多米的投入了营运，阿伯丁港口主要出口一些牛、羊、谷物等，进口货物如：煤、盐、石粉、花岗石、纸浆等饲料等。阿伯丁港口可以说是阿伯丁具有特征的地方，是中外交流的枢纽，从而引来了国内外前来阿伯丁港口旅游的人们。","latitude":22.27789,"longitude":114.16126,"rating":7,"phone_number":"+86 906 559 4703","address":"岛南麓","name":"香港仔港湾","location":["中区","中环","香港岛"],"type":["景点与地标","其它"],"photo":"https://media-cdn.tripadvisor.com/media/photo-o/06/8b/25/14/aberdeen-harbour.jpg"}
{"_id":5116873,"description":null,"latitude":22.280064,"longitude":114.18957,"rating":8,"phone_number":"+852 3150 1234","address":"高士威道六十六號","name":"香港中央图书馆","location":["维多利亚公园","香港岛"],"type":["博物馆"],"photo":"https://media-cdn.tripadvisor.com/media/photo-o/0b/a4/f9/4a/img-20160617-wa0031-largejpg.jpg"}
{"_id":3749670,"description":null,"latitude":22.243551,"longitude":114.14889,"rating":7,"phone_number":"+852 2814 9576","address":"2/F, Marina Square, East Commercial Black","name":"Prada Outlet (Space)","location":["海怡","香港岛","南区"],"type":["购物"],"photo":"https://media-cdn.tripadvisor.com/media/photo-o/04/61/02/13/waste-of-time.jpg"}
{"_id":317423,"description":"        在西安市中心的西仓一带有一个很特殊的市场，被成为鸟市。鸟市的布局也非常的特殊，街道是呈丁字形布局的，而且街道较为狭窄，所以从早到晚人流如蚁非常的拥挤，车辆都很难行进鸟市内部，久而久之这里便成为了步行街了。鸟市真的是鸟的世界，里面有各种各样色泽的鸟类，如八哥、百灵、杜鹃、相思鸟等神态各异，十分招人喜欢，从而吸引了很多游人。鸟市不仅是买鸟和卖鸟的交易市场，同时也是赛鸟、观鸟、溜鸟的场所。有很多嗜鸟者常常跑到鸟市观看一个一个的鸟摊，赛鸟者们骄傲的拿着自己精心培育的鸟儿来到鸟摊前炫耀一番，这些热闹休闲的场面可以说是与众不同的鸟市景点了。","latitude":22.325161,"longitude":114.17346,"rating":7,"phone_number":"+62 818-0919-0764","address":"康乐街 My Street Is Jalan Jati Indah 5 No.1 Kota Bandung 40275","name":"雀仔街","location":["旺角","九龙","油尖旺区"],"type":["购物"],"photo":"https://media-cdn.tripadvisor.com/media/photo-o/01/5f/d8/5c/bird-market.jpg"}
{"_id":15210251,"description":"香港西九龙站－高速铁路的跨境枢纽。车站巨型玻璃天幕由4,000多块不规则玻璃组成，而内部则由9组不同高度的巨型支柱支撑，形态独特夺目。车站的大型流线型天幕，用了超过8,000吨钢材，重量相当于巴黎铁塔。市民和游客更可沿「天空走廊」步行上站顶远眺维港景色。","latitude":22.30341,"longitude":114.16506,"rating":7,"phone_number":"+852 2120 0888","address":"西九龙站","name":"香港西九龙站","location":["柯士甸","九龙","油尖旺区"],"type":["景点与地标"],"photo":"https://media-cdn.tripadvisor.com/media/photo-m/1280/15/03/57/e8/hong-kong-west-kowloon.jpg"}
{"_id":2210623,"description":"位于香港新界青衣岛青衣机铁站上盖，距离香港国际机场只需十来分钟的车程。商场仿豪华游轮船舱的设计，营造出海洋氛围。商场内除售卖服装、衣饰外，更售卖传统香港美食,是采购礼品的好去处。\n","latitude":22.347614,"longitude":114.10237,"rating":8,"phone_number":"+852 2420 8112","address":"新界葵涌对出岛屿","name":"青衣","location":["新界","青衣","葵青"],"type":["自然与公园"],"photo":"https://media-cdn.tripadvisor.com/media/photo-o/0c/68/24/9e/view-on-tsing-yi-town.jpg"}
{"_id":12398953,"description":"意大利奢华购物体验 佛罗伦斯小镇 (Florentia Village) 是来自意大利的高级名店城,汇聚国际高级时尚品牌,全年提供精彩的购物折扣优惠。","latitude":22.360909,"longitude":114.13237,"rating":6,"phone_number":"+852 3595 3833","address":"新界葵涌葵昌路100号","name":"佛罗伦斯小镇香港高级名店城","location":["新界","葵青","葵芳"],"type":["购物"],"photo":"https://media-cdn.tripadvisor.com/media/photo-m/1280/19/fe/aa/2f/caption.jpg"}
{"_id":3362857,"description":null,"latitude":22.370577,"longitude":114.111595,"rating":8,"phone_number":"+852 2498 8343","address":"荃湾大坝街4-30号 New Territories","name":"荃湾广场","location":["新界","荃湾"],"type":["购物"],"photo":"https://media-cdn.tripadvisor.com/media/photo-o/0d/8d/d5/f0/tsuen-wan-plaza.jpg"}
{"_id":593187,"description":"合和中心是1980年建成的，位于香港仔皇后大道。合和中心是由合和事业主席胡应湘设计的。合和中心的建筑物是呈圆柱型同时也是香港首幢以澳大利亚滑模式的大厦。合和中心因为坚尼地道以及皇后大道相距的距离较远，为了为市民提供方便提供了通往写字楼的升降机等，非常方便，非常快捷，为众多游人带来的方便。合和中心的历史让很多的旅游者感到很好奇。中心的前身是“蟠龙里济公活佛堂”后来改建成合和中心。合和中心的交通也非常的方便，当您步行至皇后大道东的时候会有九龙巴士和新世界第一巴士的109、113号巴士等为您的交通提供了很大的方便。","latitude":22.2871,"longitude":114.14497,"rating":8,"phone_number":"+852 2862 5686","address":"湾仔皇后大道东合和中心183号","name":"合和中心","location":["上环","西环","香港岛","中区"],"type":["景点与地标"],"photo":"https://media-cdn.tripadvisor.com/media/photo-o/02/3b/9b/02/blick.jpg"}
{"_id":4178446,"description":null,"latitude":22.285221,"longitude":114.159195,"rating":9,"phone_number":"+852 2878 1111","address":"中环金融街8号国际金融中心二期55楼","name":"香港金融管理局","location":["中区","中环","香港岛"],"type":["景点与地标"],"photo":"https://media-cdn.tripadvisor.com/media/photo-o/11/46/8a/ca/55.jpg"}
{"_id":434257,"description":"香港医学博物馆是香港的一家以医学为主的博物馆。博物馆中的文献和实物展品可以说是香港医学博物馆景点，介绍了香港的医科学术的发展史。馆内陈列了很多种不同的医疗用具、护理工作以及香港医学卫生等。香港医学博物馆前身是香港细菌学检验所，是以应付当时流行的鼠疫而建立的。该检验所作为了香港医学化验机构是专门研究细菌病患的，之后又进行了疫苗种植了。在二次大战过后，香港医学博物馆1990年被香港政府宣布列为法定古迹，重新开放。香港医学博物馆中的英国爱德华式的建筑物成为了到此旅游的人们的必经之处，来到香港医学博物馆旅游千万不要错过哦。香港医学博物馆详细介绍：香港医学博物馆是香港一所以医学为主题的博物馆。它位于香港岛中西区上环及半山区之间一带，成立于1996年，用文献及实物展品介绍香港开埠以来的医科学术的发展历史。展览内容现时，香港医学博物馆内主要陈列了多种不同之医疗用具、介绍香港医学卫生及护理工作、19世纪时香港鼠疫的情况及实验室展示、及中草药的介绍和展示。此外，香港医学博物馆内亦开设了展览厅介绍雅丽氏妙龄那打素医院及东华三院的历史。历史香港医学博物馆前身是成立于1906年3月15日正式启用的香港细菌学检验所，以应付当时流行的鼠疫。检验所作为首个香港专为医学化验而设的机构，初时对流行细菌病患作专门研究，随后更坚负起疫苗培植的工作。在二次大战过后，检验所易名为香港病理检验所，以涵盖更大的工作范围。当“病理检验所”在1960年迁往西营盘，及疫苗制造的工作在1973年迁离后，这座建筑物便一直只作政府仓库的用途，直至1990年被香港政府宣布列为法定古迹，并在1996年3月16日重新开放，成为香港医学博物馆的馆址。","latitude":22.283619,"longitude":114.148705,"rating":8,"phone_number":"+852 2549 5123","address":"坚巷2号 Mid Levels, Sheung Wan","name":"香港医学博物馆","location":["上环","中区","香港岛"],"type":["博物馆"],"photo":"https://media-cdn.tripadvisor.com/media/photo-o/10/38/97/5f/exterior.jpg"}
{"_id":4520522,"description":null,"latitude":22.2773,"longitude":114.17325,"rating":7,"phone_number":"+852 2575 5565","address":"湾仔轩尼诗道130号","name":"湾仔电脑城","location":["湾仔／铜锣湾","香港岛","修顿球场"],"type":["购物"],"photo":"https://media-cdn.tripadvisor.com/media/photo-o/0e/88/6c/ad/caption.jpg"}
{"_id":8820252,"description":"中国传统历法遵照月运周期，而农历新年一般在一月中旬至二月底之间，中国人认为这才是“真正的”新年。 香港的农历新年庆祝活动是最热闹的，满城烟花、传统舞狮、巡游、红灯笼高挂，还有吉利的食物。 传统上，在除夕的最后几个小时应该去花市上转转，为家里买些礼物，而这些花市也令人叹为观止。","latitude":22.28029,"longitude":114.18761,"rating":8,"phone_number":"+852 2414 5555","address":"兴发街1号 维多利亚公园","name":"维多利亚公园年宵市场","location":["湾仔／铜锣湾","维多利亚公园","香港岛"],"type":["活动"],"photo":"https://media-cdn.tripadvisor.com/media/photo-o/0e/5b/ca/71/plants-for-sale.jpg"}
{"_id":1458525,"description":null,"latitude":22.380058,"longitude":114.18418,"rating":9,"phone_number":"+852 2694 4038","address":"道风山路33号","name":"道风山基督教丛林","location":["新界","沙田"],"type":["景点与地标"],"photo":"https://media-cdn.tripadvisor.com/media/photo-o/11/70/15/43/caption.jpg"}
{"_id":10519579,"description":null,"latitude":22.336018,"longitude":114.14834,"rating":8,"phone_number":"+852 3620 3098","address":"九龙荔枝角长益街9号","name":"D2 Place","location":["深水埗区","荔枝角","九龙"],"type":["购物"],"photo":"https://media-cdn.tripadvisor.com/media/photo-o/16/37/e4/9f/20190124-174656-largejpg.jpg"}
{"_id":14969288,"description":null,"latitude":22.285948,"longitude":114.14031,"rating":10,"phone_number":"+852 5243 8939","address":"西营盘福寿里13号 Next to Organic Restaurant 'Locofama'","name":"Bamboo Scenes","location":["西环","香港岛","水街","西区"],"type":["购物","博物馆"],"photo":"https://media-cdn.tripadvisor.com/media/photo-m/1280/16/1a/1c/a2/welcome-to-our-photography.jpg"}
{"_id":2003138,"description":null,"latitude":22.391706,"longitude":113.959404,"rating":8,"phone_number":"+852 2463 2629","address":"屯门区西青山","name":"香港青山禅院","location":["新界","屯门"],"type":["景点与地标"],"photo":"https://media-cdn.tripadvisor.com/media/photo-o/0a/98/37/2d/scene-from-film.jpg"}
{"_id":3363477,"description":null,"latitude":22.28121,"longitude":114.158035,"rating":7,"phone_number":"852-36953388","address":"中环皇后大道中15号置地广场","name":"Harvey Nichols Store (中环置地广场店)","location":["中区","中环","香港岛"],"type":["购物"],"photo":"https://media-cdn.tripadvisor.com/media/photo-o/05/3f/f0/9a/harvey-nichols-store.jpg"}
{"_id":4555355,"description":null,"latitude":22.330685,"longitude":114.18831,"rating":7,"phone_number":"+852 2718 6320","address":"九龙城贾炳达道128号","name":"九龙城广场","location":["九龙城区","九龙"],"type":["购物"],"photo":"https://media-cdn.tripadvisor.com/media/photo-o/0d/81/40/9b/kowloon-city-plaza-local.jpg"}
{"_id":442858,"description":"香港大学美术博物馆设立在香港大学内部，是历史上最悠久的香港博物馆。美术博物馆是在陶瓷方面很受人们的欢迎的。馆内的藏品包括新石器时代的彩陶、汉代和唐代的铅釉器，可以说是绚丽的唐三彩。另外，香港大学美术博物馆内的其他藏品有早期的越瓷、青瓷等，这类瓷器一直以来备受东南亚及韩国人士的喜爱。宋代的名窑作品：定窑和磁州窑，明清两代：单色瓷和彩瓷，以及欧洲各国的釉里蓝、青花瓷器等值得一看。每每来到美术博物馆，人们都会来到这里欣赏这些精致的陶瓷作品。除此之外，香港博物馆中还会举办各类的展览，以介绍中国和西方现代的传统艺术。香港大学美术博物馆详细介绍：香港大学美术博物馆（The University Museumand Art Gallery of the University of Hong Kong）设于香港大学内，是历史最悠久的香港博物馆，创立于一九五三年，最先称“冯平山博物馆”，所占的建筑物原属一九三二年启用的“冯平山图书馆”，两者均以建筑物的捐建人来命名。至一九九四年，博物馆改称“香港大学美术博物馆”。一九九六年，博物馆增加了新翼，位于徐展堂楼的展厅建成开放。在过去五十年，博物馆珍藏超逾一千五百件具历史价值的中国艺术品，它们主要分为青铜器、陶瓷和绘画三类，年代上至新石器时代，下迄清代。在陶瓷方面，博物馆藏品包括新石器时代的彩陶，汉代和唐代的铅釉器，以及色泽绚丽的唐三彩。其他藏品有早期的越瓷及青瓷，这类瓷器最受东南亚及韩国人士喜爱。宋代的名窑作品则有定窑及磁州窑。至于明清两代的单色瓷及彩瓷，以及风靡中东及欧洲各国的釉里蓝或青花瓷器，博物馆也藏有一些代表作品。当中便以唐代的釉里蓝点三足水注最为珍贵，它是中国最早期的青花例子。至于青铜器，博物馆收藏了商代及西周力气，东周至唐代铜镜，以及在世界上收藏最丰富的元代景教铜十字。在其他艺术品方面，博物馆还藏有木、玉和石凳雕刻，以及少量明代至现代的中国水墨画及油画。除展出馆藏外，博物馆经常举办各类型展览，介绍中国和西方的现代和传统艺术，以至香港早期历史，并举行研讨会、讲座，以及演视艺活动。博物馆同时参与香港大学艺术系的教学工作，教授中国古代艺术及博物馆学等课程，秉承博物馆以教育为目标的宗旨，希望透过艺术教学开阔学生的视野和知识领域。此外，为推广中国茶文化，馆内设有“博寮茶座”，参观者可品尝中国名茶。博物馆坐落于般咸道大学入口旁的冯平山楼，以及徐展堂楼的底三层。开放时间是星期一至星期六，上午九时三十分至下午六时；星期日，下午一时三十分至五时三十分。大学及公众假期休息。","latitude":22.283844,"longitude":114.13919,"rating":8,"phone_number":"+852 2241 5500","address":"大学西营盘薄扶林道船咸道94号","name":"香港大学美术博物馆","location":["大学","香港岛","西区"],"type":["博物馆"],"photo":"https://media-cdn.tripadvisor.com/media/photo-o/11/79/87/a0/university-museum-and.jpg"}
{"_id":2643438,"description":null,"latitude":22.277058,"longitude":114.176956,"rating":8,"phone_number":"+852 2834 7729","address":"湾仔道 Wan Chai District","name":"鱼菜市场","location":["湾仔／铜锣湾","香港岛"],"type":["购物"],"photo":"https://media-cdn.tripadvisor.com/media/photo-o/08/c8/aa/3c/fish-vegetable-market.jpg"}
{"_id":2003134,"description":"\"园圃街雀鸟市场 (旺角)\n 雀鸟花园内售卖各类唱雀和观赏性鸟雀，还有林林总总木制或竹制的精致鸟笼，以及雀鸟饲养用品。\n 不少人都喜欢用鸟笼提着唱雀，到雀鸟花园休憩，聆听鸟儿的宛转啼叫，享受生活的闲情。惟观赏雀鸟的同时，请勿直接触摸。\n 多为每日上午7:00至晚上8:00。\n\"\n","latitude":22.32597,"longitude":114.17389,"rating":7,"phone_number":"+62 818-0919-0764","address":"深水埗区界限街","name":"园圃街雀鸟公园","location":["旺角","九龙","油尖旺区"],"type":["自然与公园"],"photo":"https://media-cdn.tripadvisor.com/media/photo-o/05/0e/21/c3/yuanpu-street-bird-park.jpg"}
{"_id":593051,"description":"湾仔邮政局是香港现存历史最悠久的邮政局建筑，位于香港岛湾仔区湾仔峡道和皇后大道东交界。该邮政局于1912年至1913年间兴建，于1915年正式开放为湾仔邮政局。这座建筑现在已经成为了香港法定古迹，并由环境保护署用作环境资源中心，称为环保轩，展示关于环保的数据及图片等，免费入场。","latitude":22.28697,"longitude":114.14415,"rating":8,"phone_number":"+852 2893 2856","address":"湾仔区皇后大道221号","name":"旧湾仔邮政局","location":["西环","香港岛","西营盘","西区"],"type":["景点与地标"],"photo":"https://media-cdn.tripadvisor.com/media/photo-o/01/7a/ef/43/wan-chai-post-office.jpg"}
{"_id":14179331,"description":null,"latitude":22.372007,"longitude":114.11629,"rating":9,"phone_number":"+852 2149 6261","address":"大河道45号树动楼1楼","name":"猫之茶房","location":["新界","荃湾"],"type":["景点与地标"],"photo":"https://media-cdn.tripadvisor.com/media/photo-m/1280/16/82/f2/9c/photo1jpg.jpg"}
{"_id":593073,"description":"乐天陶社是带有俱乐部形式的休闲社区。来此旅游只要你有创意，有构思，乐天陶社都可以为你提供所有的条件来帮您实现想法，你可以尝试着自己亲自去做，当然也可以把你的想法说出来，乐天陶社会将您的想法变成艺术。不论是国内还是国外的有人，只要想寻求独特个性创意，都可以到乐天陶社来。每年都会有大量游人来到这里。你可以将您在乐天陶社所创作的作品作为你新房的装饰，同时在乐天陶社您也可以为自己喜欢的餐具和茶具等，在乐天陶社旅游会让您有点挥洒自如的随意想法。乐天陶社详细介绍：乐天陶社总部，位于香港中环亚厘毕道二号艺穗会。创立于1985年，目的是为陶艺家和酷爱陶艺的人士提供欣赏陶艺及制作陶艺的艺术空间。今天的乐天陶社由陶艺家郑祎女士统筹，成为香港最大的陶艺中心。在本地及国际陶艺界甚为活跃。为了扩大、展示、手工陶瓷艺术到国内，乐天陶社在上海泰康路艺术街，创立了新的工作室和展示厅，来向大家开放。","latitude":22.27921,"longitude":114.15568,"rating":9,"phone_number":"+852 2858 0103","address":"上环上街站24号地下","name":"乐天陶社","location":["半山区","中环","香港岛","中区"],"type":["购物","景点与地标","博物馆"],"photo":"https://media-cdn.tripadvisor.com/media/photo-o/0f/3d/40/95/caption.jpg"}
{"_id":4492570,"description":null,"latitude":22.28213,"longitude":114.15617,"rating":6,"phone_number":"+852 2801 6833","address":"中环皇后大道中48号","name":"万年大厦商场","location":["中区","中环","香港岛"],"type":["购物"],"photo":"https://media-cdn.tripadvisor.com/media/photo-o/12/47/a3/a7/caption.jpg"}
{"_id":4479153,"description":null,"latitude":22.26393,"longitude":114.236824,"rating":6,"phone_number":"+852 2897 8929","address":"柴湾道233号","name":"新翠商场","location":["东区","香港岛"],"type":["购物"],"photo":"https://media-cdn.tripadvisor.com/media/photo-w/16/ec/05/b2/artium.jpg"}
{"_id":593195,"description":"香港大学是一所在香港岛成立的大学，香港大学的前身是香港的西医书院，是香港历史中最悠久的大学。香港大学以英文为教学语言，在2007年被英国评为了全球前30名的顶尖大学，从而也列入了中华人民共和国名列第一。每一个来到这里旅游的人都会对大学的历史感兴趣。在历史中香港大学曾经是孙中山先生习医的地方。后来，英国觉得也应该在香港成立一所大学是为了与其他列强竞争，同时也是为了让中国人认同英国的价值。于是，香港大学于1911年成立，并在医学方面做出了卓越的成就。现在的香港大学有十个学院，分别为文学院、工商管理学院、建筑学院、牙医学院、工程学院、理学院等，在香港大学内部所设立的舍堂也会让广大的学子学会自行组织活动、形成彼此互相学习达到课堂和学术以外的全人教育。","latitude":22.2817,"longitude":114.13155,"rating":8,"phone_number":"+852 2859 2111","address":"薄扶林道","name":"香港大学","location":["西环","香港岛","西区"],"type":["景点与地标"],"photo":"https://media-cdn.tripadvisor.com/media/photo-o/0c/51/08/85/caption.jpg"}
{"_id":590751,"description":null,"latitude":22.27998,"longitude":114.17386,"rating":8,"phone_number":"+852 2586 8111","address":"岛湾仔区港湾道","name":"香港中环广场","location":["湾仔／铜锣湾","香港岛","修顿球场"],"type":["景点与地标","其它"],"photo":"https://media-cdn.tripadvisor.com/media/photo-s/00/18/e0/32/central-plaza.jpg"}
{"_id":3362366,"description":null,"latitude":22.322962,"longitude":114.172295,"rating":8,"phone_number":"852-23970790","address":"旺角太子道西193号(近旺角火车站D出口)","name":"新世纪广场","location":["旺角","九龙","油尖旺区"],"type":["购物"],"photo":"https://media-cdn.tripadvisor.com/media/photo-o/0a/d7/b8/f2/moko-2.jpg"}
{"_id":1036338,"description":"\"鲤鱼门海鲜美食村，是香港品尝海鲜美食的胜地，村内仍保留着一片罕见的老香港风貌。鲤鱼门的餐馆设有露天座位，海鲜质优味美，取价公道，处处散发着香港渔乡的旧风情。 \n顾客除了可在餐馆内点选海鲜美食外，还可以亲自在海鲜店现点现捞鲜活海产，再交给自行选定的餐馆，由餐馆根据您喜爱的方法烹调，现烹现吃，滋味无穷\"\n","latitude":22.290619,"longitude":114.23838,"rating":8,"phone_number":"+852 2348 4118","address":"观塘区油塘工业区的东南面","name":"鯉魚門海鮮美食村","location":["九龙","观塘区"],"type":["购物"],"photo":"https://media-cdn.tripadvisor.com/media/photo-o/08/6f/16/28/caption.jpg"}
{"_id":548050,"description":"凌霄阁位于香港岛山顶区的维多利亚山上。凌霄阁内部的建筑风格典雅而时尚。凌霄阁是由英国著名建筑设计师特果．法雷尔设计的。凌霄阁的外形呈碗形的，曾吸引了无数来自世界各地的游人，这里集聚了观光、购物、娱乐于一体的综合大楼。在此旅游是饱览景色的最佳选择。在凌霄阁内设有首个杜莎夫人蜡像馆，分别分为五个不同主题，其中包括魅力香江、风云人物、乐坛巨星、体坛猛将、世界首映等。凌霄阁内还设有餐饮场所以及各式各样的商铺，可以让游人在这里尽享观光、购物、娱乐的乐趣。山顶凌霄阁详细介绍：山顶凌霄阁是香港的旅游热点之一，碗形设计的建筑物内，设有特色商店及互动娱乐设施，还有星级食府及创意休闲美膳餐厅进驻其中，为您带来一次难忘的山顶之旅。黄昏时分登上摩天台，居高临下，更可在极佳位置观赏繁华壮丽的都市夜景，美不胜收。「山顶缆车120周年志庆特惠通行证」这个夏季，旅客在中环花园道山下缆车站票务处购买任何山顶缆车车票，即可获赠“山顶缆车120周年志庆特惠通行证”一张，凭证可在山顶凌霄阁23家指定商店及餐馆专享特别优惠，并可于四家著名餐厅点选“120周年纪念特选套餐”。地址：山顶山顶道128号","latitude":22.271255,"longitude":114.150055,"rating":8,"phone_number":"+852 2849 7654","address":"维多利亚山顶卢吉道1号","name":"山顶凌霄阁","location":["山顶","中区","香港岛"],"type":["景点与地标"],"photo":"https://media-cdn.tripadvisor.com/media/photo-o/0c/75/16/df/peak-tower.jpg"}
{"_id":311567,"description":"茶具文物馆位于红棉道的香港公园内。文物馆主要是保存，展出并研究茶具文物以及相关的茶艺文化。在1989年茶具文物馆被列为法定的古迹，同时也是香港历史最悠久的西式建筑物。据说文物馆是非常有名画家布鲁斯设计的并由英国的工程部建成的。带有希腊风格成为了典型的英国殖民地形式的建筑了，正因如此茶具文物馆吸引了无数国内外的游者来到这里参观。茶具公园身刻着历史的烙印展现人们面前的却是别有韵味的饮茶历史。来到茶具文物馆旅游的人们千万不要错过茶具文物馆景点--地下中国茶室举行的免费茶艺示范以及茶具的简单介绍。茶具文物馆详细介绍：茶具文物馆是香港康乐及文化事务署辖下的博物馆之一，亦是香港艺术馆的分馆，展览各种中国茶具文物。香港茶具文物馆位于香港岛金钟红棉路10号，实际位置则于香港公园之内的东北部，免费入场，逢星期二休馆。该馆定期举办陶艺示范及茶艺活动等活动，以推广陶瓷艺术和中国茶文化。历史茶具文物馆于1984年1月建立，馆址设于香港公园内的旗杆屋，2层的展馆共分为6个展区。1995年，茶具文物馆增建了新翼罗桂祥茶艺馆，在同年的12月14日落成启用，以展示香港茶具文物收藏家罗桂祥捐出的展品。该馆在1986年创办陶瓷茶具创作比赛，至今已经举办了7届，今届的参加者突破了214位。","latitude":22.27841,"longitude":114.16244,"rating":8,"phone_number":"+852 2869 0690","address":"红棉路10号","name":"茶具文物馆","location":["中区","中环","香港岛"],"type":["博物馆"],"photo":"https://media-cdn.tripadvisor.com/media/photo-o/12/57/56/50/caption.jpg"}
{"_id":2297328,"description":null,"latitude":22.38884,"longitude":114.27453,"rating":9,"phone_number":"+852 3105 0767","address":"西贡","name":"香港世界地质公园","location":["新界","西贡"],"type":["自然与公园"],"photo":"https://media-cdn.tripadvisor.com/media/photo-o/0b/83/f4/a4/20160604135110-largejpg.jpg"}
{"_id":1843642,"description":"中英街历史博物馆展楼总建筑面积1688平方米，较全面的记录和反映了中英街的百年沧桑。博物馆在陈列表现手法上也做了一些尝试。如复原陈列再现了晚清东和墟繁荣祥和的集市场面，其规模包括房屋40多座，赶墟群众200多人，各种道具1000多件，真实地反映了当地人民群众从传统的农业经济向商品经济发展的进程。运用现代电子手段制作的香港、九龙、新界及沙头角的全景沙盘，直观地再现了英国殖民主义者瓜分中国领土的罪恶行径。此外，展览还从改革开放、精神文明建设、香港回归祖国等方面，展现了蓬勃发展的中英街新貌。此外，博物馆广场陈设的中英街警示钟时刻提醒来这里参观的游客和学生牢记中英街屈辱的历史，它与中英街1号界碑相互映衬，成为中英街一景。作为省市爱国主义教育基地，中英街历史博物馆已得到政府和社会各届的高度重视，经常有国家领导人和社会名人莅临参观并挥毫题词。中英街历史博物馆，原为中英街历史纪念馆，位于广东省深圳市盐田区沙头角镇内环城路9号，1999年5月1日建成开馆，是由深圳市盐田区政府投资兴建的一座专题性地志博物馆。来看中英街历史博物馆大揭秘，寻找新奇的中英街历史博物馆旅游攻略，展现不为人知的中英街历史博物馆风景, TripAdvisor期待你的加入，并与你共同探索真实的中英街历史博物馆。","latitude":22.54172,"longitude":114.23101,"rating":6,"phone_number":"+86 755 2525 1107","address":"518081 广东省 深圳市 盐田区沙头角镇内环城路9号","name":"中英街历史博物馆","location":["新界","北区"],"type":["博物馆"],"photo":"https://media-cdn.tripadvisor.com/media/daodao/photo-s/03/9f/9f/62/caption.jpg"}
{"_id":2160895,"description":null,"latitude":22.340532,"longitude":114.20193,"rating":8,"phone_number":"0085221188811","address":"九龙钻石山","name":"荷里活广场","location":["黄大仙","九龙"],"type":["购物"],"photo":"https://media-cdn.tripadvisor.com/media/photo-o/02/43/53/13/inside-plaza-hollywood.jpg"}
{"_id":593196,"description":null,"latitude":22.273193,"longitude":114.18884,"rating":9,"phone_number":"+852 2895 7926","address":"东院道55号","name":"香港体育场","location":["香港岛"],"type":["休闲与游戏"],"photo":"https://media-cdn.tripadvisor.com/media/photo-m/1280/17/d7/c5/39/photo0jpg.jpg"}
{"_id":2296819,"description":null,"latitude":22.296804,"longitude":114.172165,"rating":7,"phone_number":"+852 3665 3333","address":"弥敦道63-67号","name":"iSQUARE国际广场购物中心","location":["尖沙咀","九龙","油尖旺区"],"type":["购物"],"photo":"https://media-cdn.tripadvisor.com/media/photo-s/02/ba/a3/74/i-square.jpg"}
{"_id":487256,"description":"米埔自然保护区是香港最重要的自然保护区，1995年被列为拉姆萨尔国际重要湿地，未经许可，禁止进入。在此保护区内，飞禽走兽可自由活动，其中大部分品种都是极为罕见的。曾记录的鸟类品种超过300种。还有大量不同品种的昆虫及蝴蝶。保护区1984年建立，面积为380公顷，其中红树林面积达300公顷。主要保护对象为红树林资源、珍稀动植物资源。米埔自然保护区及邻近的湿地素以雀鸟天堂而闻名，在米埔可找到香港72%的雀鸟品种，也可找到多种全球濒危的雀鸟。米埔沼泽及后海湾内湾的湿地位处香港的西北端，数十年来成为候鸟的天堂。以往，米埔并没有获任何形式的保护，直至1976年，才列为具特殊科学价值地点。1984年，自然基金开始接手管理米埔保护区，推行环境教育及保护工作。1995年，米埔及后海湾内湾共1500公顷的湿地正式根据《拉姆萨尔公约》列为国际重要湿地。米埔自然保护区吸引了大量游客前来观光浏览，亲历米埔自然保护区的网友都曾发出过怎样的赞叹呢？来看TripAdvisor网友对米埔自然保护区的真实点评吧。","latitude":22.495275,"longitude":114.04916,"rating":9,"phone_number":"+852 2526 1011","address":"新界西屯门区屏山乡","name":"米埔自然保护区","location":["新界","元朗"],"type":["自然与公园"],"photo":"https://media-cdn.tripadvisor.com/media/photo-m/1280/16/e9/be/ce/photo1jpg.jpg"}
{"_id":15687373,"description":null,"latitude":22.375072,"longitude":114.11017,"rating":8,"phone_number":"+852 3979 2300","address":"荃湾白田霸街45号","name":"南丰纱厂","location":["新界","荃湾"],"type":["购物","景点与地标","博物馆"],"photo":"https://media-cdn.tripadvisor.com/media/photo-m/1280/16/63/e6/08/the-park-is-spacious.jpg"}
{"_id":593131,"description":"上窑民俗文物馆上窑民俗文物馆是香港文化博物馆的分馆，位于风景优美的西贡郊野公园内，占地500平方米，原址是一条建于19世纪末的黄姓族人的客家村落──上窑村。1981年，上窑村及邻近的一座灰窑皆被列为法定古迹。1984年上窑村经过复修，重修后，改为民俗文物馆，开放予市民参观。上窑民俗文物馆以上窑昔日的房舍、敞阔的晒坪和其它附设的建筑结构为主，馆内陈列各种客家的农具及家庭用品，更附有图片说明。只要一进入上窑民俗文物馆，昔日的上窑乡村风貌就重现在眼前，刚好跟现在繁忙市区的生活成了对照，是一个万万不能错过的地方。","latitude":22.392477,"longitude":114.32123,"rating":9,"phone_number":"+852 2792 6365","address":"西贡北谭涌","name":"上窰民俗文物馆","location":["新界","西贡"],"type":["博物馆"],"photo":"https://media-cdn.tripadvisor.com/media/photo-o/0f/37/6b/15/photo1jpg.jpg"}
{"_id":543472,"description":"圣约翰教堂最初是作为一个礼拜堂而用的，在教会改革期间圣约翰教堂已经成为了大家的私有财产。教堂是以圣约翰骑士团的守护神命名的，这里的建筑风格是由世界上著名的建筑师萨尔设计的。另外，在1578年的时候教堂建成了，同时标志着骑士团伯尔古将迁到了瓦莱塔的已经正式完成了。圣约翰教堂外观苍白而朴素，而且内部的装饰却非常的精彩，圣约翰教堂内部又分了一些小礼拜堂，里面挂有做工精美、时髦的比利时地毯，许多来到此旅游的人们都会靠近看看这些比利时地毯。从而吸引了很多来到圣约翰教堂旅游的人们，这里也成为了最吸引的教堂之一。圣约翰教堂详细介绍：俗称大教堂，位于花园道，1847年奠基，1849年建成，是香港最早建立的基督教教堂。其间在1865年进行扩建工程，成为今日的模样。二次大战期间，日军曾以该教堂为总部。二战后多次重修，旧貌仍得以保存。正门前有纪碑一座，用以悼念第一次世界大战期间的殉难者，旁边地下平放麦士维士兵的墓碑，以纪念在香港保卫战时在教堂前殉难的士兵。教堂北墙上另有威廉大尉纪念碑石，以纪念他在1857年时于广州城下殉难。现时，它仍是对公会港澳教区的主堂。","latitude":22.27892,"longitude":114.159775,"rating":8,"phone_number":"+852 2523 4157","address":"中环花园道4-8号","name":"圣约翰座堂","location":["中区","中环","香港岛"],"type":["景点与地标"],"photo":"https://media-cdn.tripadvisor.com/media/photo-o/05/45/02/ac/st-john-s-cathedral.jpg"}
{"_id":487176,"description":"香港青马大桥，公铁两用桥，主跨1377米（333+1377+300)，但300米边跨侧主缆不设吊杆，实际上只有2跨加劲桁。桥塔高131米，在青衣岛侧采用隧道式锚碇，在马湾岛侧采用重力式锚碇，加劲桁梁高754米，高跨比1/185，纵向桁架之间为空腹式桁架横梁，中部空间可容纳行车道及路轨，大桥上层桥面中部和下层桥面路轨两侧均设有通气空格，形成流线型带有通气空格的闭合箱型加劲梁，1998年建成。青马大桥，是配合香港国际机场（赤蜡角机场）而建的十大核心工程之一。于1992年5月开始兴建，历时五年竣工，造价71.44亿港元。青马大桥横跨青衣岛及马湾，桥身总长度2200米，主跨长度1377米，离海面高62米，青马大桥除创造世界最长的行车、铁路两用吊桥纪录外，包括青马大桥在内的“机场核心计划”还于1999年荣获美国建筑界权威及编辑选为“二十世纪十大建筑成就奖Top 10 Construction Achievements of the 20th Century”得主之一，并与英法海峡隧道、旧金山金门大桥、艾森豪威尔威尔威尔州际和国防公路系统、纽约帝国大厦、科罗拉多胡佛水坝、巴拿马运河、悉尼歌剧院、埃及阿斯旺水坝工程及纽约世界贸易中心同享殊荣。青马大桥是为了赤蜡角机场而建的十大核心工程之一，可算是世界级建筑，它横跨青衣岛及马湾，全长2，160公尺，主桥跨度也达1377米，两座吊塔，每座高206米，离海面62米，是全世界最长的行车、铁路两用吊桥。1992年，青马大桥开始建造，仅以五年时间完成，称得上是同类建筑中花最短时间。它与连接马湾、大屿山的汲水门大桥一起，像两道彩虹，成为香港新的观光景点。它的壮观恢宏的气势完全超越了美国的金门大桥。青马大桥于1992年5月开始兴建，当时造价达71.44亿港元，历时五年竣工。青马大桥横跨青衣岛及马湾，桥身总长度为2200公尺，主跨长度1377公尺，离海面高62公尺。青马大桥的桥塔高206公尺，采用的吊缆钢线总长度达160000公里，单是结构用的钢材重量便高达50000公吨。您想知道青马大桥的地理位置吗？您想知道青马大桥在历史上都有哪些故事吗？您是否还想知道青马大桥的独特之处？那么请看TripAdvisor的青马大桥具体介绍。","latitude":22.351257,"longitude":114.07417,"rating":8,"phone_number":"+852 2495 5825","address":"青衣岛","name":"青马大桥","location":["新界","青衣","葵青"],"type":["景点与地标"],"photo":"https://media-cdn.tripadvisor.com/media/photo-o/09/3a/44/ab/tsing-ma-bridge.jpg"}
{"_id":6402576,"description":null,"latitude":22.28495,"longitude":114.15832,"rating":8,"phone_number":"+852 2523 3627","address":"中环港景街1号","name":"香港站","location":["中区","中环","香港岛"],"type":["交通"],"photo":"https://media-cdn.tripadvisor.com/media/photo-o/0e/85/ee/f1/caption.jpg"}
{"_id":3945363,"description":null,"latitude":22.24713,"longitude":114.15666,"rating":8,"phone_number":"+852 3105 0767","address":"仔石排湾道102号","name":"香港仔鱼市场","location":["香港岛","南区","黄竹坑"],"type":["购物"],"photo":"https://media-cdn.tripadvisor.com/media/photo-o/07/98/5b/84/fish-for-sale.jpg"}
{"_id":593191,"description":"香港视觉艺术中心是香港康乐以及文化事务署下的一个艺术发展中心。香港视觉艺术中心位于港岛金种香港公园内，是一所让视觉艺术家们都互相观摩，互相学习创作发展的地方。来到香港视觉中心一些实景陶瓷、版画、雕塑等艺术类的作品都会使每一位来到香港视觉艺术中心旅游的人们都非常感兴趣。另外，中心提供了9个艺术工作室、1个展览厅、1间多用途、1间演讲厅等。这里还举办了多种类型的艺术活动，包括展览、示范、课程、讲座等等设施齐全。尤其是在雕塑室内可制作金属焊接、木及、陶土和石的雕塑作品等，同时也是香港视觉艺术中心景点。","latitude":22.276974,"longitude":114.15963,"rating":7,"phone_number":"+852 2521 3008","address":"坚尼地道中7A","name":"香港视觉艺术中心","location":["中区","中环","香港岛"],"type":["博物馆"],"photo":"https://media-cdn.tripadvisor.com/media/photo-o/03/64/cb/43/hong-kong-visual-arts.jpg"}
{"_id":4886858,"description":null,"latitude":22.33273,"longitude":114.187065,"rating":7,"phone_number":"+852 2336 0375","address":"九龙城联合道及东头村道交界","name":"侯王庙","location":["九龙城区","九龙塘","九龙"],"type":["景点与地标"],"photo":"https://media-cdn.tripadvisor.com/media/photo-o/04/9b/87/43/hau-wong-temple.jpg"}
{"_id":4496405,"description":"新太陽廣場位於尖沙咀廣東道及北京道交界,引進全港最大香港T廣場(T Galleria by DFS) 旗艦店,更匯聚多間歐美日潮流服飾專門店,是選購時尚品牌的好去處。","latitude":22.296814,"longitude":114.1692,"rating":6,"phone_number":"+852 2267 0883","address":"尖沙咀广东道28号","name":"新太阳广场","location":["尖沙咀","九龙","油尖旺区"],"type":["购物"],"photo":"https://media-cdn.tripadvisor.com/media/photo-o/0f/b9/d3/64/t-t-galleria-by-dfs.jpg"}
{"_id":2226373,"description":"2007年，蓝屋成立了“湾仔民间生活馆”，专门收集湾仔社区的特色传统文化老物件儿，供大家参观，了解真正的“老湾仔”。这里会不定期变化展出的主题，所以，逛到这里，总会有一种时空交错的感觉，以及时代变迁的感慨。\n","latitude":22.2739,"longitude":114.17406,"rating":8,"phone_number":"+852 2835 4376","address":"石水渠街74号湾仔蓝屋地下","name":"湾仔民间生活馆","location":["香港岛","轩尼诗道"],"type":["博物馆"],"photo":"https://media-cdn.tripadvisor.com/media/photo-o/06/52/f4/c7/wanchai-livelihood-place.jpg"}
{"_id":4174558,"description":null,"latitude":22.277462,"longitude":114.15867,"rating":8,"phone_number":"+852 2864 1443","address":"中环缆径1号","name":"世界自然基金会中环访客中心","location":["中区","中环","香港岛"],"type":["旅客资源"],"photo":"https://media-cdn.tripadvisor.com/media/photo-o/07/9b/1c/0e/inside-the-visitor-centre.jpg"}
{"_id":593121,"description":"圣玛加利大堂（St. Margaret's Church）是香港一所天主教教堂，是东方第一所以圣女玛加利大（St. Margaret Mary Alacoque）为名的教堂，位于香港岛跑马地乐活道1号，由“宗座外方传教会”建立，于1923年2月3日由翟伯禄神父奠基，1925年1月25日祝圣启用，1949年1月25日升格为堂区。","latitude":22.273977,"longitude":114.18425,"rating":9,"phone_number":"+852 2576 2801","address":"跑马地乐活道2号","name":"圣玛加利大堂","location":["香港岛"],"type":["景点与地标"],"photo":"https://media-cdn.tripadvisor.com/media/photo-o/05/4e/34/a1/st-margaret-s-church.jpg"}
{"_id":4680239,"description":null,"latitude":22.382704,"longitude":114.18784,"rating":8,"phone_number":"+852 2707 0020","address":"沙田车站围1号","name":"连城广场","location":["新界","沙田"],"type":["购物"],"photo":"https://media-cdn.tripadvisor.com/media/photo-o/17/91/26/38/20190518-145955-largejpg.jpg"}
{"_id":4402175,"description":null,"latitude":22.325678,"longitude":114.17255,"rating":8,"phone_number":"+852 2380 0188","address":"旺角花墟道","name":"旺角大球场","location":["旺角","九龙","油尖旺区"],"type":["休闲与游戏"],"photo":"https://media-cdn.tripadvisor.com/media/photo-w/07/91/3f/e9/caption.jpg"}
{"_id":2186869,"description":null,"latitude":22.267197,"longitude":114.14405,"rating":9,"phone_number":"+852 2508 1234","address":"山顶露天广场","name":"香港旅游发展局访问中心","location":["山顶","中区","香港岛"],"type":["旅客资源"],"photo":"https://media-cdn.tripadvisor.com/media/photo-o/11/71/e5/39/visitor-centre.jpg"}
{"_id":8046810,"description":null,"latitude":22.302149,"longitude":114.17248,"rating":8,"phone_number":"+852 2367 1478","address":"九龙尖沙咀弥敦道138号","name":"圣安德烈堂","location":["尖沙咀","九龙","油尖旺区"],"type":["景点与地标"],"photo":"https://media-cdn.tripadvisor.com/media/photo-m/1280/16/45/cb/b5/church-and-its-surroundings.jpg"}
{"_id":2210652,"description":"\"翔天廊 (香港国际机场2号航站楼)\n 汇集百多家零售商店、餐馆和多个娱乐消闲区(大部分设施位于机场非吸烟区范围)。\"\n","latitude":22.31652,"longitude":113.93768,"rating":8,"phone_number":"+852 2181 8888","address":"国际机场客运大楼二期","name":"翔天廊","location":["新界","离岛","东涌"],"type":["购物"],"photo":"https://media-cdn.tripadvisor.com/media/photo-m/1280/17/f1/09/28/hong-kong-airport.jpg"}
{"_id":4541152,"description":null,"latitude":22.37208,"longitude":114.11935,"rating":8,"phone_number":"+852 2414 6560","address":"荃湾西楼角路138-168号","name":"荃丰中心商场","location":["新界","荃湾"],"type":["购物"],"photo":"https://media-cdn.tripadvisor.com/media/photo-o/14/98/99/e0/20180912-201418-largejpg.jpg"}
{"_id":2050658,"description":"惩教博物馆前身为惩教署已婚职员宿舍，博物馆位于香港岛南区东头湾道。博物馆内设有多间展览室，每一个展览室有一个独立的主题，主题分别为：刑罚及监禁、监狱历史及发展、监狱内貌、职员制服、徽章及装备、越南船民、自制武器及违禁品、职员点滴及海外合作及交流，有9个主题，有9间展览室。每一个展览室展出都展出了与主题相关的文物，例如模拟绞刑台、模拟囚室、模拟监狱瞭望塔、自制武器、惩教人员制服及徽号等，妁约600多件，让游客更加了解香港惩教的历史演变、制度和刑罚。另外，香港惩教博物馆也展出了从前囚犯的手工艺品，值得一看。博物馆内可以买到一些相关的纪念品，是选择手信的最佳选择。在操场的看台上另有社区教育中心，介绍本署的惩教及更生计划。博物馆外尚有面积达200平方米的观景平台，游人可在此饱览大潭湾的海光山色，顺便拍照留念。历史爱好者和各地游客定会觉得不虚此行。TripAdvisor为您提供最全面、最新颖，最实用的惩教博物馆在线查阅资料。","latitude":22.21613,"longitude":114.21785,"rating":8,"phone_number":"+852 2147 3199","address":"岛南区东头湾道","name":"香港惩教博物馆","location":["赤柱","香港岛","南区"],"type":["博物馆"],"photo":"https://media-cdn.tripadvisor.com/media/photo-o/09/a4/9c/44/caption.jpg"}
{"_id":3363230,"description":null,"latitude":22.444803,"longitude":114.02421,"rating":7,"phone_number":"852-24743828","address":"青山道249-251号","name":"元朗广场","location":["新界","元朗"],"type":["购物"],"photo":"https://media-cdn.tripadvisor.com/media/photo-o/12/ff/61/7d/20180519-175127-largejpg.jpg"}
{"_id":12275507,"description":"雅蘭中心匯聚國際鐘錶珠寶品牌，概念店以及多間時尚服飾品牌店舖，「潮食點」更集20間中、西、日人氣特色食肆，讓顧客於這鬧市中的時尚熱點，寫意享受各國優質美饌。","latitude":22.318163,"longitude":114.169205,"rating":8,"phone_number":"+852 2787 5115","address":"旺角弥敦道625&639号","name":"雅兰中心","location":["旺角","九龙","油尖旺区"],"type":["购物"],"photo":"https://media-cdn.tripadvisor.com/media/photo-o/14/4e/44/1a/20180825-184803-largejpg.jpg"}
{"_id":7022741,"description":null,"latitude":22.414755,"longitude":114.0247,"rating":7,"phone_number":"+852 2470 2201","address":"新界元朗十八乡大棠山道11号 Yuen Long","name":"大棠荔枝山庄","location":["新界","元朗"],"type":["景点与地标"],"photo":"https://media-cdn.tripadvisor.com/media/photo-o/0d/e8/18/f5/caption.jpg"}
{"_id":12060638,"description":null,"latitude":22.27725,"longitude":114.17672,"rating":8,"phone_number":"+852 2824 5303","address":"湾仔茂萝街7号地下7号铺","name":"动漫基地","location":["湾仔／铜锣湾","香港岛"],"type":["博物馆"],"photo":"https://media-cdn.tripadvisor.com/media/photo-o/11/97/8c/af/comix-home-base-heritage.jpg"}
{"_id":593202,"description":"香港赛马博物馆位于香港跑马地的马场快活看台2楼。赛马博物馆内除了设有8个展览厅外，还设有电影院等，这些完善的设备可以精彩的展现出赛马博物馆历史中有趣的资料描述，例如：现代先进的赛马场赛道、著名练马师以及骑师等一些辉煌的战绩，可以让来到香港赛马博物馆旅游的人们深刻的了解到香港赛马活动。博物馆的发展已经过百年了，回顾过去马场的发展香港赛马博物馆旅游者也会深深的体会到赛马运动一直都跟着时代的步伐前进着。另外，在香港赛马博物馆内还发现一副骸骨，这副于1995年逝世的源自香港的第一匹赢得百万奖金的冠军马王的骸骨，除此之外旅游者们可以细听练马师傅们在培养竞赛马是得到录音和谈话。","latitude":22.273602,"longitude":114.18206,"rating":8,"phone_number":"+852 2966 8065","address":"跑马地马场2楼","name":"香港赛马博物馆","location":["湾仔／铜锣湾","跑马地","香港岛"],"type":["博物馆"],"photo":"https://media-cdn.tripadvisor.com/media/photo-o/01/d9/41/c6/caption.jpg"}
{"_id":8498377,"description":"香港最新一所非牟利民間博物館，致力提倡中國文化藝術。\n\n「一新美術館」屬非牟利機構，致力提倡中國文化藝術，給公眾認識香港的多元文化，如何美化本土的藝術世界﹔並向他們介紹中國的眾多文化傳統，怎樣活化香港人的社會生活。","latitude":22.31113,"longitude":114.21937,"rating":9,"phone_number":"+852 2690 6790","address":"九龙观塘海滨道165号SML大厦4楼 Kwun Tong, Kowloon","name":"一新美术馆","location":["观塘","九龙","观塘区"],"type":["博物馆"],"photo":"https://media-cdn.tripadvisor.com/media/photo-o/08/c6/b4/fd/caption.jpg"}
{"_id":6562448,"description":null,"latitude":22.472574,"longitude":114.21574,"rating":7,"phone_number":"+852 3111 7344","address":"新界大埔汀角路鳳園村150號","name":"凤园蝴蝶保育区","location":["新界","大埔"],"type":["自然与公园"],"photo":"https://media-cdn.tripadvisor.com/media/photo-o/09/3d/9a/82/fung-yuen-butterfly-reserve.jpg"}
{"_id":3363445,"description":null,"latitude":22.291086,"longitude":114.199295,"rating":7,"phone_number":"+852 2856 0333","address":"北角英皇道395号","name":"华丰国货","location":["北角","香港岛","东区","炮台山"],"type":["购物"],"photo":"https://media-cdn.tripadvisor.com/media/photo-o/0e/25/1a/38/caption.jpg"}
{"_id":1867881,"description":null,"latitude":22.303009,"longitude":114.1632,"rating":8,"phone_number":"+852 2196 8016","address":"九龙尖沙咀柯士甸道西一号圆方商场地下层","name":"The Rink溜冰汤 (圆方商場)","location":["九龙","油尖旺区"],"type":["休闲与游戏"],"photo":"https://media-cdn.tripadvisor.com/media/photo-o/01/9e/a0/30/caption.jpg"}
{"_id":12537243,"description":null,"latitude":22.311235,"longitude":114.22577,"rating":7,"phone_number":"+852 2357 9877","address":"68 Hoi Yuen Road, Kwun Tong","name":"观唐广场","location":["观塘","九龙","观塘区"],"type":["购物"],"photo":"https://media-cdn.tripadvisor.com/media/photo-o/15/47/cc/48/20181107-133538-largejpg.jpg"}
{"_id":14928947,"description":null,"latitude":22.300524,"longitude":114.17222,"rating":8,"phone_number":"+852 2315 5868","address":"弥敦道118-130 & 132号","name":"Mira Place","location":["尖沙咀","九龙","油尖旺区"],"type":["购物"],"photo":"https://media-cdn.tripadvisor.com/media/photo-o/13/e6/04/b3/mira-place.jpg"}
{"_id":4555337,"description":null,"latitude":22.444025,"longitude":114.16922,"rating":7,"phone_number":"+852 2653 8886","address":"新界大埔南运路9号","name":"新达广场","location":["新界","大埔"],"type":["购物"],"photo":"https://media-cdn.tripadvisor.com/media/photo-o/09/32/48/7c/caption.jpg"}
{"_id":4192096,"description":null,"latitude":22.296417,"longitude":114.17222,"rating":6,"phone_number":"+852 2587 7775","address":"九龙尖沙咀弥敦道36号 Tsim Sha Tsui","name":"Cke重庆购物商场","location":["尖沙咀","九龙","油尖旺区"],"type":["购物"],"photo":"https://media-cdn.tripadvisor.com/media/photo-o/11/0e/ab/9d/cke.jpg"}
{"_id":3396450,"description":null,"latitude":22.282488,"longitude":114.23072,"rating":8,"phone_number":"+852 2560 7030","address":"谭公庙道","name":"谭公庙","location":["阿公岩","东区","香港岛"],"type":["景点与地标"],"photo":"https://media-cdn.tripadvisor.com/media/photo-s/02/c1/1e/6a/tam-kung-temple.jpg"}
{"_id":9721565,"description":null,"latitude":22.380308,"longitude":114.18859,"rating":8,"phone_number":"+852 2694 2509","address":"新界沙田源禾路1号","name":"城市艺坊","location":["新界","沙田"],"type":["自然与公园"],"photo":"https://media-cdn.tripadvisor.com/media/photo-o/0a/01/d9/58/city-art-square.jpg"}
{"_id":593171,"description":"青屿干线观景台位于青衣岛的西北角区域，从这里可以看到青屿干线和北面的汀九桥全面壮丽风景了。此外，在这里可以俯瞰到马湾海峡的最佳景致了。青屿干线观景台的设施非常周到包括了高出地面的平台、汀九桥、青马大桥以及青屿干线观景台的访客中心等。在青屿干线观景台的不远处还设有一个可以停泊大型旅游巴士和房子、车的收费停车场等，青屿干线观景台种植了很多棵幼树翠绿的叶子。香港青屿干线观景台可以说是目前全港种植杜鹃花最多的地方了。每年在杜鹃花盛情开放的时候也是人们最关注的青屿干线观景台景点，场景尤为壮观。为了给旅游者提供方便，这里特意开设了一个纪念品售卖店和露天茶座。青屿干线观景台现在已经成为了香港最受欢迎的的旅游景点。无论是香港本地的居民还是特地来到青屿干线观景台旅游的人们，这里都成为了他们来到青屿干线观景台必到之处了。","latitude":22.358664,"longitude":114.08147,"rating":8,"phone_number":"+852 2495 5825","address":"西北部青衣岛","name":"青屿干线访客中心及观景台","location":["新界","青衣","葵青"],"type":["景点与地标","旅客资源"],"photo":"https://media-cdn.tripadvisor.com/media/photo-o/06/7f/66/0b/lantau-link-visitors.jpg"}
{"_id":311572,"description":null,"latitude":22.49965,"longitude":114.076416,"rating":8,"phone_number":"+852 2208 4400","address":"新界","name":"大夫第大厦","location":["新界","元朗"],"type":["景点与地标"],"photo":"https://media-cdn.tripadvisor.com/media/photo-o/07/d0/32/da/caption.jpg"}
{"_id":7028983,"description":null,"latitude":22.28201,"longitude":114.15687,"rating":8,"phone_number":"+852 2151 0555","address":"12 Pedder Street 7/F Pedder Building","name":"Gagosian Gallery","location":["中区","中环","香港岛"],"type":["景点与地标"],"photo":"https://media-cdn.tripadvisor.com/media/photo-o/08/d8/d1/fc/gagosian-gallery.jpg"}
{"_id":3362859,"description":null,"latitude":22.392427,"longitude":113.97589,"rating":7,"phone_number":"+852 2440 2981","address":"屯门屯合街1-2号","name":"屯门时代广场","location":["新界","屯门"],"type":["购物"],"photo":"https://media-cdn.tripadvisor.com/media/photo-o/14/f0/ed/72/20181005-134505-largejpg.jpg"}
{"_id":593145,"description":null,"latitude":22.275305,"longitude":114.17897,"rating":8,"phone_number":"+852 2355 7282","address":"湾仔爱群道18号","name":"伊丽莎白体育馆","location":["湾仔／铜锣湾","香港岛"],"type":["休闲与游戏"],"photo":"https://media-cdn.tripadvisor.com/media/photo-m/1280/14/41/eb/1e/caption.jpg"}
{"_id":590959,"description":"林禅院位于荃湾芙蓉山上，由融秋老和尚创建。据说当年老和尚在潜修佛法时，曾三次获得地藏王的启示，要他寻找梦中所见的福地兴建寺院。老和尚于是率领弟子在香港四出寻访，最后来到一处翠绿一片，因盛产野芙蓉而得名的地方，便与众弟子开始建寺。尤幸得到善信支持，浮屠宝殿和两廊的静修室在一九三二年间建成。一九七五年，山门、天王殿及大雄宝殿亦已在兴建中，至一九八二年整座禅院终告落成。 禅寺的大门楼髹有「竹林禅院」四个朱红大字。院内的宝塔庄严雄伟，而两旁院落又栽种了很多植物，一片清幽。于融秋法师的憩息处，更挂满名人字画。 ","latitude":22.378105,"longitude":114.11856,"rating":8,"phone_number":"+852 2416 6557","address":"芙蓉山路","name":"竹林禅院","location":["新界","荃湾"],"type":["景点与地标"],"photo":"https://media-cdn.tripadvisor.com/media/photo-o/0d/44/8a/26/photo4jpg.jpg"}
{"_id":6394458,"description":null,"latitude":22.279995,"longitude":114.17085,"rating":8,"phone_number":"+852 2582 0200","address":"湾仔港湾道2号","name":"香港艺术中心","location":["湾仔／铜锣湾","香港岛","修顿球场"],"type":["景点与地标"],"photo":"https://media-cdn.tripadvisor.com/media/photo-s/05/bb/26/a1/hong-kong-arts-centre.jpg"}
{"_id":6881392,"description":"南丫島漁民文化村」 香港唯一的海上展覽及旅遊景點,建立目的主要是保存和推廣漁民文化及推動本地旅遊。 我們不時會舉辦不同形式活動,讓大家能從多角度去接觸漁民文化.","latitude":22.206951,"longitude":114.131714,"rating":8,"phone_number":"+852 2982 8585","address":"南丫岛索罟湾5号 Fish Raft, Sok Kwu Wan, Lamma Island","name":"南丫岛渔民文化村","location":["新界","离岛","南丫岛"],"type":["景点与地标"],"photo":"https://media-cdn.tripadvisor.com/media/photo-m/1280/19/08/3f/4c/s-village.jpg"}
{"_id":9748654,"description":null,"latitude":22.27382,"longitude":114.17396,"rating":7,"phone_number":"+852 2833 4608","address":"岛湾仔石水渠街74号","name":"蓝屋","location":["香港岛","轩尼诗道"],"type":["景点与地标"],"photo":"https://media-cdn.tripadvisor.com/media/photo-o/0a/19/08/08/historic-shophouses-with.jpg"}
{"_id":2182315,"description":null,"latitude":22.420008,"longitude":113.98378,"rating":9,"phone_number":"+852 2461 8567","address":"屯门蓝地青山公路18号","name":"妙法寺","location":["新界","屯门"],"type":["景点与地标"],"photo":"https://media-cdn.tripadvisor.com/media/photo-o/09/dd/a2/a7/caption.jpg"}
{"_id":4496443,"description":"置地广场是顶级购物和品位生活的代名词。其悠久历史始自1904年，时至今日，这里成为置地公司中环物业的高级时尚购物点，其中包括4座地标建筑：置地广场中庭、置地历山、置地遮打和置地太子。这些地标建筑由人行天桥相连，云集了约208家最为精挑细选的名店和食府，荟萃琳琅满目的高级时装和配饰、巧夺天工的钟表珠宝、别致矜贵的家居用品、贴心专业的美容护理服务，以及让味蕾尝鲜的中外美馔，为品位非凡的顾客呈献最惬意称心的购物体验。","latitude":22.281294,"longitude":114.15875,"rating":8,"phone_number":"+852 2500 0555","address":"中环遮打道16至20号","name":"置地历山","location":["中区","中环","香港岛"],"type":["购物"],"photo":"https://media-cdn.tripadvisor.com/media/photo-m/1280/13/b5/18/96/caption.jpg"}
{"_id":10020336,"description":"如果鲜花是你的热情所在，那么香港花卉展览是你不能错过的活动。有 200 个园艺组织参与，接近 600,000 人次参观，这个一年一度的香港花卉展览在维多利亚公园举行，并且因为奇异花朵系列成为世界首屈一指的展览。除了美丽的植物本身，花卉展览还举办各种花卉课程和展示、音乐表演，甚至现场舞蹈表演。","latitude":22.281954,"longitude":114.18991,"rating":8,"phone_number":"+852 2428 7827","address":"銅鑼灣興發街1號 維多利亞公園","name":"香港花卉展覽","location":["湾仔／铜锣湾","维多利亚公园","香港岛"],"type":["活动"],"photo":"https://media-cdn.tripadvisor.com/media/photo-m/1280/0e/ad/e2/2e/caption.jpg"}
{"_id":11849510,"description":null,"latitude":22.390697,"longitude":113.97381,"rating":8,"phone_number":"+852 2451 1144","address":"新市镇","name":"屯门公园","location":["新界","屯门"],"type":["休闲与游戏","自然与公园"],"photo":"https://media-cdn.tripadvisor.com/media/photo-o/0d/b5/91/1f/tuen-mun-park-green-along.jpg"}
{"_id":441412,"description":"香港警队博物馆位于山顶甘道，此馆前身为建于十九世纪的湾仔峡警署。展品包括具历史价值的香港警队自1844年成立以来的警队装备、文献及罪案资料等。香港的警署大多都有悠久历史。近年来，香港政府和社会各界积极将其中一些富有特色的古旧警署活化成各种悠闲娱乐设施，继续发展其效用。警署建筑中西合璧，由于建筑风格特别，香港大部分的古旧警署都被保留下来，矗立在这个现代化大都市当中，有些还被政府列为历史建筑。它们的命运各有不同，有的继续作警政用途，有的则被改建作其他用途。古旧警署各有用途，例如位于新界元朗，建于一八九九年的屏山警署，香港政府自一九九七年起，与元朗邓族合作，将该处改建成“屏山邓族文物馆”，举办有关新界原居民历史和风俗的展览，成为著名旅游景点屏山文物径的一部分。香港警队博物馆建筑于一八五九年，位处香港岛南部的前赤柱警署，一九七四年警队撤出该处后，一直被多个政府部门使用，后来在一九九三年被改建成为一间高级西餐厅，其后再被一间超级市场租用作分店，一直至今。同样是位于香港岛的湾仔峡警署，于一九八八年被警务处改建成警队博物馆。","latitude":22.26759,"longitude":114.16873,"rating":8,"phone_number":"+852 2849 7019","address":"山顶甘道27号","name":"警察博物馆","location":["香港岛","修顿球场"],"type":["博物馆"],"photo":"https://media-cdn.tripadvisor.com/media/photo-o/10/d0/ec/d3/photo4jpg.jpg"}
{"_id":590792,"description":"香港仔郊野公园（划定于1977年10月28日）是位于香港仔的郊野公园，广受本地人士欢迎，亦吸引一些外地游客到访。位置香港仔郊野公园位于香港岛的南麓，向北伸延至湾仔峡，南面则为香港仔和黄竹坑，面积约423公顷，是香港较早开拓的郊野公园之一。香港仔郊野公园所环绕的是「香港仔水塘」，分为香港仔上水塘和香港仔下水塘。香港仔上水塘是港岛区最后建成的水塘，而两个水塘的总存水量为1250万立方米。自然环境香港仔郊野公园环境优美，无论远足或漫步均宜，尤其是在春回大地的时节，山坡繁花似锦；绿叶成荫，置身其中，使人心旷神怡。旅行人士现在享受的林荫，全赖战后造林和多种阔叶类树木的再生而成，比较常见的有红胶木、木荷、大头茶、鸭脚木及岗捻。区内的树林常见的飞禽有麻鹰、毛鸡、画眉、喜鹊、了哥、钓鱼郎等。游人间中会瞥见林内掠过的穿山甲和松鼠。好去处香港仔自然教育径位于香港仔下水塘东，游人可从教育径上的传意牌加深对郊野的认识。适宜远足的港岛径，其中的香港仔及黄竹坑段，约十四公里，连绵于园内，西起贝璐道，东达布力径。郊野公园内提供多样的康乐设施适合不同类别的人士使用，设施包括烧烤炉、太极台、儿童游乐设施、树木研习径及健身径等。此外更设有一条轮椅径供伤健人士使用。香港仔郊野公园游客中心设有查询服务，并展出有趣的郊野公园资料。交通香港仔郊野公园地近市区，交通方便，四通八达。从香港仔、可经香港仔水塘道前往，从黄泥涌峡及湾仔峡可取道布力径，从山顶区及香港仔则可经贝璐道抵达。如果乘搭公共交通工具，可选择前往石排湾的巴士或小巴。邻近的郊野公园大潭郊野公园","latitude":22.25163,"longitude":114.15681,"rating":9,"phone_number":"+852 2555 2179","address":"仔水塘道","name":"香港仔郊野公园","location":["香港岛","南区"],"type":["自然与公园","户外活动"],"photo":"https://media-cdn.tripadvisor.com/media/daodao/photo-s/01/8e/fd/db/caption.jpg"}
{"_id":3363155,"description":null,"latitude":22.28632,"longitude":114.152916,"rating":7,"phone_number":"852-28521888","address":"上环德辅道中211号永安中心","name":"永安百货(上环总店)","location":["上环","中区","香港岛"],"type":["购物"],"photo":"https://media-cdn.tripadvisor.com/media/photo-o/0f/43/df/b1/caption.jpg"}
{"_id":8705196,"description":null,"latitude":22.271168,"longitude":114.150116,"rating":9,"phone_number":"+852 3462 6208","address":"中环MTR站K出口","name":"Peak Tram Fast-Track Guided Tour","location":["山顶","中区","香港岛"],"type":["跟团游览"],"photo":"https://media-cdn.tripadvisor.com/media/photo-o/09/87/0f/95/peak-tram-skip-the-line.jpg"}
{"_id":2050643,"description":"青松观位于屯门，建于1949年，是香港著名道观，观内建筑仿照中国道教名山大殿而成，其中以壶天胜境牌坊、三清大殿、九龙壁和九曲莲池最为著名。观内摆设不少远年盆栽，形态美妙。这里供应的上素亦十分有名。松柏长青，老当益壮，“青松”意为松柏，“观”则为道教中的庙宇。幽恬宁静的青松观，一派祥和之气，教人消弭俗虑，心旷神怡。青松观源于广州至宝台，一九四九年冬，吕祖师谕示『南下设坛，继行普度』，何启忠、陆至真、叶至和、卢宝经、易宝云、陈台镜等十八位创办人遂于九龙伟晴街大同广告公司设立临时筹备处，翌年再觅得同街六十七号四楼为观址，又蒙玉皇天尊乩示，赐名『青松』，道坛遂得以建立。六零年代，青松观迁址屯门，七零年再于九龙深水建立总办事处，坛观分立，二为一体。青松观以『遵行九美、修道行善』为宗旨，为一注册慈善团体及有限公司，现有活跃弟子约六百人。这座传统道教庙宇，原是一处供人避世修道之所。观内亭台楼阁精巧典雅，莲池树石错落有致，古木盆栽生趣盎然，极富传统特色。观内还珍藏着不少瑰宝，其中包括北京故宫博物馆馈赠的灯笼。主楼纯阳殿的四周分布着精心设计的亭台楼阁、巍峨殿宇、水榭牌楼、中式园林、四合院和鱼池，布局考究，与不同的树丛、园圃、花卉和盆栽相映成趣，情韵自生，妙不可言。青松观属于全真龙门派，观内供奉吕纯阳、王重阳、邱长春三位祖师，与及三元大帝、斗姥元君、王灵官及黄玄宪、李志能、白眉祖师、王碧罗四位镇坛师，主要诞期为吕祖诞及邱祖诞。青松观创立于1949年，属全真教龙门派，道派溯源于广东广州至宝台。创立初年建坛于九龙伟晴街，1952年迁至弥敦道，1960年购置屯门青山麒麟围建立永久观址，1974又增设九龙大南街观址以配合屯门祖观的发展。屯门祖观除了是信徒道侣聚合参道之宗教场所，亦是中外游客及香港市民参观游览之道教圣地。TripAdvisor为您提供最全面、最新颖，最实用的香港青松观在线查阅资料。","latitude":22.406538,"longitude":113.97337,"rating":8,"phone_number":"+852 2462 1507","address":"新界西青康径","name":"香港青松观","location":["新界","屯门"],"type":["景点与地标"],"photo":"https://media-cdn.tripadvisor.com/media/photo-m/1280/16/7c/63/0a/incense-and-worshippers.jpg"}
{"_id":9456955,"description":null,"latitude":22.284971,"longitude":114.149315,"rating":10,"phone_number":"+852 2806 8280","address":"荷李活道181-199号 Sheung Wan","name":"两依藏博物馆","location":["上环","中区","香港岛"],"type":["博物馆"],"photo":"https://media-cdn.tripadvisor.com/media/photo-o/0a/03/b7/78/liangyi-museum.jpg"}
{"_id":593026,"description":"圆玄学院位于香港特别行政区。圆玄学院供奉佛教、道教、儒家的人物。在学院内的建筑很富有亭台楼阁的风格。另外，院内建立了一座仿照中国的天坛的建筑物。您可以了解到天然奇怪的岩石，有一些酷似12生肖的石岩，吸引了大量的游人。在圆玄学院每年在春季均会举办一些展览盆载雅石欣赏会，展出的一些富有独特艺术的盆景、菊花等各种奇型怪相岩石，都会让人们为其感到赞叹，圆玄学院旅游者们在游乐之后可以到优雅宁静的斋堂尝一尝清淡的素食。圆玄学院是宗教圣地，兼佛、道、儒三教等要进一步感受到中国特色的传统文化。圆玄学院详细介绍：由该观董事会主席赵镇东的叔叔赵聿修等人于1946年创建，位于香港新界荃湾三叠潭。因赵镇东的父亲曾在广东道教罗浮山人道，所以圆玄学院从道脉上来讲与罗浮山有联系。该院以道、儒、释三教合一为特色，院名称圆玄学：圆意指佛教，玄；指道教，学指儒学。崇奉三教圣祖，弘扬道、儒、释。主要殿堂建筑为三教大殿，大殿分上下二层，上层供奉太上道德天尊、大成至圣；先师、释迦牟尼，下层供奉六十甲子神像。三教大殿前两侧建有钟；楼、鼓楼，另有关帝殿、吕祖殿及丹房。前有石牌楼，院内还有雕塑、池塘、花园，办有素食馆，设有骨灰堂等，是港九最大的道场之一。圆玄学院为董事会制。圆玄学院不仅建筑日趋规模，并在计划进一步扩建，还建有图书馆，藏有三教经典和有关书籍。1985年12月曾组织召开“道教科仪传统音乐国际研究会议”。对内地办学和道教宫观维修极为支持和关心，并在广州花县修建了一座规模宏大的圆玄福利中心。","latitude":22.383398,"longitude":114.123055,"rating":8,"phone_number":"+852 2492 2220","address":"新界西荃湾区三叠潭","name":"圆玄学院","location":["新界","荃湾"],"type":["景点与地标"],"photo":"https://media-cdn.tripadvisor.com/media/photo-o/07/00/3e/51/yuen-yuen-institute.jpg"}
{"_id":3363411,"description":null,"latitude":22.323172,"longitude":114.213356,"rating":8,"phone_number":"852-27500877","address":"九龙湾伟业街33号","name":"德福广场","location":["九龙湾","九龙","观塘区"],"type":["购物"],"photo":"https://media-cdn.tripadvisor.com/media/photo-o/10/e2/ca/6e/telford-plaza.jpg"}
{"_id":3363166,"description":null,"latitude":22.29715,"longitude":114.17612,"rating":7,"phone_number":"852-21961388","address":"尖沙咀东部么地道62号永安广场","name":"永安百货(尖东店)","location":["尖沙咀","九龙","油尖旺区"],"type":["购物"],"photo":"https://media-cdn.tripadvisor.com/media/photo-o/0d/d5/12/d9/wing-on-department-store.jpg"}
{"_id":21198786,"description":null,"latitude":22.281054,"longitude":114.18583,"rating":10,"phone_number":"+852 2617 7011","address":"铜锣湾百德新街22-36号 珍珠城","name":"DON DON DONKI Pearl City","location":["湾仔／铜锣湾","香港岛"],"type":["购物"],"photo":"https://media-cdn.tripadvisor.com/media/photo-o/1b/c1/c7/d6/photo2jpg.jpg"}
{"_id":16660430,"description":null,"latitude":22.282158,"longitude":114.15845,"rating":8,"phone_number":"+852 2500 0555","address":"8 Connaught Road Central","name":"Landmark Chater","location":["中区","中环","香港岛"],"type":["购物"],"photo":"https://media-cdn.tripadvisor.com/media/photo-m/1280/16/6d/87/e5/getlstd-property-photo.jpg"}
{"_id":3363131,"description":null,"latitude":22.330988,"longitude":114.15963,"rating":7,"phone_number":"852-27086688","address":"深水埗钦州街37K号西九龙中心L1-3室","name":"先施(深水埗)","location":["深水埗区","九龙"],"type":["购物"],"photo":"https://media-cdn.tripadvisor.com/media/photo-o/09/d1/66/db/photo0jpg.jpg"}
{"_id":2005251,"description":null,"latitude":22.28181,"longitude":114.157166,"rating":9,"phone_number":"+852 2522 9600","address":"毕打街12号毕打楼301号","name":"布朗美术馆","location":["中区","中环","香港岛"],"type":["博物馆"],"photo":"https://media-cdn.tripadvisor.com/media/photo-o/05/e2/d0/9f/ben-brown-fine-arts.jpg"}
{"_id":487254,"description":"八乡古庙公园是香港的一所古庙，现在是香港二级历史建筑。这里的景点有四个大殿，分别为：侯王殿、华光殿、观音殿、天后殿等，在公园的右侧是烈士祠，是专门用来悼念八乡牺牲的烈士。在园中曾经有一颗年过百岁的笔管榕，胸径有130厘米，是香港同树中之最。八乡古庙公园中的香炉更是文物了，而且上面刻有光绪二十三年秋月的字样，有很多的来此旅游的人们都认识了这里的文化。八乡古庙公园在八乡居民的心目中享有尊贵的地位。每逢贺诞庆典的时候所有的乡亲父老一起参拜，非常的热闹。八乡古庙公园详细介绍：八乡古庙是香港新界八乡上村的一所古庙，现为香港二级历史建筑。历史八乡古庙建于清朝乾隆二十八年（1763年），并曾于咸丰十一年（1861年）、光绪十三年（1887年）、1963年及1987年重修。香港日治时期，这儿曾是一个抗日的基地。结构八乡古庙共有四个大殿：左殿是侯王殿、华光殿；正殿是观音殿；右殿是天后殿。古庙右侧是烈士祠，为悼念历来为八乡牺牲的烈士。元朗八乡古庙有一株古树属笔管榕年过百岁，胸径130厘米，是香港同属树中之最。","latitude":22.433561,"longitude":114.100395,"rating":7,"phone_number":"+852 2488 3417","address":"锦田公路","name":"八乡古庙公园","location":["新界","元朗"],"type":["景点与地标","自然与公园"],"photo":"https://media-cdn.tripadvisor.com/media/photo-o/0f/33/56/76/photo0jpg.jpg"}
{"_id":593185,"description":null,"latitude":22.446442,"longitude":114.167915,"rating":8,"phone_number":"+852 2522 1071","address":"干诺道中15-18号大吕大厦3楼","name":"大埔圣母无玷之心堂","location":["新界","大埔","大埔墟"],"type":["景点与地标"],"photo":"https://media-cdn.tripadvisor.com/media/photo-o/11/97/a6/0d/church-interior.jpg"}
{"_id":315465,"description":"罗屋民俗馆位于柴湾街，是香港的一座法定古迹。这里唯一吸引您的景点就是罗屋，是一间很典型的客家人的村屋，而且罗屋民俗馆也是柴湾区唯一保存最好的清代前期建筑。原本这个村屋属于一名罗姓的客家人所以取名为罗屋。罗屋民俗馆建于清朝乾隆年间，而且有位户主保存了纸地契为证。民俗馆的地形并不大，中央有个大厅，大厅两旁是建有典雅阁楼的房间，楼阁内左右房间的前方还有一个小房间而且分别用作厨房和储物室，打开门会看到有一片禾坪，是收割时晒谷子用的。罗屋民俗馆内摆放有古老经典的家具、简易的农具可供人们欣赏。罗屋民俗馆详细介绍：位于柴湾吉胜街十四号，是一间典型的客家村屋；该村屋是柴湾区内唯一仍保存的清代前期建筑，原本属于一名罗姓客家人，因此取名罗屋。该村屋建于清朝乾隆年间，从户主仍保存的一纸地契，可作证明。该屋的形制不大，中央是一大厅，两旁为建有阁楼的房间，左右房间的前方另有小房间，分别用作厨房及储物室，门外有一片禾坪，可供收割时作晒谷用。屋内摆设有古老家具、农具，供人欣赏。毗邻的新建民俗馆大楼内展览罗屋及柴湾地区早期人民生活情况的照片及文物。","latitude":22.26415,"longitude":114.235466,"rating":7,"phone_number":"+852 2896 7006","address":"湾仔启成街","name":"罗屋民俗馆","location":["东区","香港岛"],"type":["博物馆"],"photo":"https://media-cdn.tripadvisor.com/media/photo-m/1280/16/ec/01/63/living-room.jpg"}
{"_id":12631583,"description":null,"latitude":22.381083,"longitude":114.18998,"rating":8,"phone_number":"+852 2694 2509","address":"新界沙田源禾路一号","name":"沙田大会堂","location":["新界","沙田"],"type":["景点与地标"],"photo":"https://media-cdn.tripadvisor.com/media/photo-o/10/f4/91/b1/sha-tin-town-hall-and.jpg"}
{"_id":593153,"description":"香港中文大学文物馆是香港公众博物馆之一，位于香港中文大学。在文物馆是以惠借文物精品为馆藏，并致力于发展并弘扬着中国文化，所以这里也吸引了很多游人。香港中文大学文物馆曾经出版了很多刊物，其中包含了出土文物、陶瓷、漆器、书画等。除此之外，馆内还收藏了很多图册、捐赠的参考书籍等。香港中文大学文物馆致力于中国文物的收藏、研究、保存以及展览让广大旅游者对中国艺术、文化遗产、人文精神等得到了很深刻的认识。香港中文大学文物馆详细介绍：香港中文大学文物馆位于香港中文大学，主要展览中国艺术及文化展品。展品包括自商代甲骨文至篆、隶、楷、草、行等各书体的中国书法、各书法名家的手书墨迹、用作祭祀、陪葬、建筑、贸易、陈设、观赏和收藏各方面的中国陶瓷，都收藏在展览厅内，而且每半年就会更换一次展品，令你每次参观都有惊喜。除了展览厅，文物馆内还设有参考图书室，图书室珍藏了海内外的文化及艺术机构之间互赠的图册、中国艺术品的照片及幻灯片，更藏有不少重要的参考书籍及文物图片数据库，同时充满中国历史和艺术价值，是一个游客必往的好地方，特别是喜欢中国文化与艺术的朋友。","latitude":22.419432,"longitude":114.20609,"rating":9,"phone_number":"+852 3943 7416","address":"中文大学林荫大道","name":"香港中文大学文物馆","location":["新界","沙田"],"type":["博物馆"],"photo":"https://media-cdn.tripadvisor.com/media/photo-o/0c/53/e7/ce/caption.jpg"}
{"_id":12309744,"description":"2010年2月20日，為推動西貢區旅遊事業、本土經濟和提供本土就業助力，西貢區社區中心在位於西貢海濱地段逢星期六、日舉辦名為「西貢海濱樂園購物天地」的市集。\n\n本計劃已獲得地區各方的支持包括西貢民政事務處、部份西貢區區議員及主要地區團體等。社工轉介人士、學校推薦、慈善/志願團體申請優先考慮。\n\n時至今日已發展至有接近40個恒常攤位，部份更與本計劃由開始長期合作至今。\n\n營業日期：\t逢星期六、日及指定公眾假期舉行\n營業時間：\t11:00am-6:00pm","latitude":22.382282,"longitude":114.2748,"rating":8,"phone_number":"+852 2798 9511","address":"西贡海滨长廊","name":"西贡海滨乐园购物天地","location":["新界","西贡"],"type":["购物"],"photo":"https://media-cdn.tripadvisor.com/media/photo-o/12/7f/9a/04/20180401-164435-largejpg.jpg"}
{"_id":17806995,"description":null,"latitude":22.260864,"longitude":114.13032,"rating":8,"phone_number":"+852 3166 3111","address":"100 Cyberport Road 100 Cyberport Road","name":"Cyberport Arcade","location":["薄扶林","香港岛","南区"],"type":["购物"],"photo":"https://media-cdn.tripadvisor.com/media/photo-o/1b/4c/b2/8d/cyberport-arcade-linked.jpg"}
{"_id":20885424,"description":null,"latitude":22.326479,"longitude":114.155045,"rating":6,"phone_number":"+852 3612 1000","address":"九龙29号深旺道","name":"V Walk","location":["深水埗区","九龙"],"type":["购物"],"photo":"https://media-cdn.tripadvisor.com/media/photo-m/1280/1b/4f/e0/76/photo1jpg.jpg"}
{"_id":20712672,"description":null,"latitude":22.334354,"longitude":114.20895,"rating":6,"phone_number":"+852 2719 8230","address":"清水灣銀綫灣泳灘","name":"银线湾","location":["黄大仙","九龙"],"type":["自然与公园","户外活动"],"photo":"https://media-cdn.tripadvisor.com/media/photo-o/1b/4c/4a/c5/caption.jpg"}
{"_id":20671406,"description":null,"latitude":22.362062,"longitude":114.37182,"rating":6,"phone_number":"+852 2394 1538","address":"Man Yee Road south end of the High Island Reservoir East Dam","name":"High Island Reservoir Memorial","location":["新界","西贡"],"type":["景点与地标"],"photo":"https://media-cdn.tripadvisor.com/media/photo-m/1280/1b/49/57/04/high-island-reservoir.jpg"}
{"_id":15194758,"description":null,"latitude":22.414503,"longitude":114.223564,"rating":5,"phone_number":"+852 2979 0218","address":"马鞍山保泰街16号","name":"We Go Mall","location":["新界","沙田"],"type":["购物"],"photo":"https://media-cdn.tripadvisor.com/media/photo-m/1280/16/45/c1/b3/we-go-mall.jpg"}
{"_id":6439626,"description":null,"latitude":22.2841,"longitude":114.15434,"rating":9,"phone_number":"+852 6695 1161","address":"旺角皇后大道东119-121","name":"Choco L'ART 工作室","location":["中区","中环","香港岛"],"type":["购物","博物馆"],"photo":"https://media-cdn.tripadvisor.com/media/photo-o/05/98/93/ed/getlstd-property-photo.jpg"}
{"_id":12948010,"description":null,"latitude":22.333113,"longitude":114.18704,"rating":8,"phone_number":"+852 2325 0111","address":"联合道133号","name":"石屋家园","location":["九龙城区","九龙塘","九龙"],"type":["景点与地标"],"photo":"https://media-cdn.tripadvisor.com/media/photo-o/1b/a9/25/94/caption.jpg"}
{"_id":593120,"description":null,"latitude":22.28583,"longitude":114.14733,"rating":7,"phone_number":"+852 2548 4777","address":"荷里活道232","name":"圣马修教堂","location":["上环","中区","香港岛"],"type":["景点与地标"],"photo":"https://media-cdn.tripadvisor.com/media/photo-s/02/c5/02/4b/st-matthew-s-church.jpg"}
{"_id":17563172,"description":null,"latitude":22.369375,"longitude":114.27032,"rating":10,"phone_number":"+852 2792 2234","address":"Tsiu Hang, Sai Kung","name":"Lions Nature Education Centre","location":["新界","西贡"],"type":["自然与公园"],"photo":"https://media-cdn.tripadvisor.com/media/photo-m/1280/19/78/86/79/caption.jpg"}
{"_id":3362784,"description":null,"latitude":22.317635,"longitude":114.16914,"rating":8,"phone_number":"852-22691888","address":"旺角朗豪坊1-2楼","name":"西武百货(旺角朗豪坊)","location":["旺角","九龙","油尖旺区"],"type":["购物"],"photo":"https://media-cdn.tripadvisor.com/media/photo-o/0e/58/f8/ad/caption.jpg"}
{"_id":3345904,"description":null,"latitude":22.45275,"longitude":114.17109,"rating":8,"phone_number":"+852 2665 6896","address":"新界大埔安邦路8及10号","name":"大埔超级城","location":["新界","大埔"],"type":["购物"],"photo":"https://media-cdn.tripadvisor.com/media/photo-o/0d/fe/83/d2/tai-po-mega-mall.jpg"}
{"_id":13412178,"description":null,"latitude":22.317694,"longitude":114.15544,"rating":6,"phone_number":"+852 3611 0139","address":"九龙大角咀海辉道18号 一号银海","name":"Superpark","location":["奥运","九龙","油尖旺区"],"type":["休闲与游戏","自然与公园"],"photo":"https://media-cdn.tripadvisor.com/media/photo-o/16/90/d0/6a/img-20190223-180117046.jpg"}
{"_id":7390705,"description":null,"latitude":22.382732,"longitude":114.1242,"rating":9,"phone_number":"+852 2411 5111","address":"新界荃湾老围三叠潭","name":"西方寺","location":["新界","荃湾"],"type":["景点与地标"],"photo":"https://media-cdn.tripadvisor.com/media/photo-o/11/72/f1/8e/caption.jpg"}
{"_id":2050654,"description":"美利楼(Murray House)是香港一座具有维多利亚时期色彩的建筑物，本来位于香港岛北岸的中环，但现时经已整座搬迁至香港岛东南部的赤柱。美利楼建于1844年，属于域多利兵房的一部份，主要用作英军的军营。到了香港日治时期，这座建筑物被日军用作「日本宪兵部办事处」及「日本军事统师部」，还设有很多囚犯室及用作刑场，当中被杀者据称超过四千多人，堪称医院外死人最多的建筑物。第二次世界大战结束后，美利楼曾被多个香港政府部门作为办公室。1975年至1982年期间，美利楼成为了香港差饷物业估价处的总部。1960年至1970年代，美利楼频频传出闹鬼之事，港英政府期间不单请了牧师和神父在大楼内驱鬼，又使用佛教超渡仪式来把怨气净化，希望能安抚人心，由于政府需动用公饷做法事，因此存有相关档案纪录。1982年，因应香港中银大厦的建筑工程，美利楼需要被拆卸。但由于其历史价值，香港政府决定将这座建筑物完整保留及迁至他处。分拆出来的超过3000件建筑物料被妥善纪录及储存。1990年，香港房屋委员会决定将美利楼搬迁至赤柱。整座建筑物于1998年重建完成，并于1999年重新开幕。楼高三层的美利楼以巨型花岗岩为主要建筑材料，并揉合了东、西方建筑特色。美利楼既用了中式的瓦面斜顶的屋顶，又有采用了古欧陆维多利亚式圆形石柱，加上香港特殊历史背景，别具特色。美利楼是香港现今最大规模的古迹重建工程之一，并成为赤柱的一个重要标志，游人可在此细览遗迹，缅怀昔日历史。了解美利楼的方方面面，掌据美利楼最真实的第一手资料，就在TripAdvisor。","latitude":22.221973,"longitude":114.20771,"rating":7,"phone_number":"+852 2899 0122","address":"岛南区佳美道","name":"美利楼","location":["赤柱","香港岛","南区"],"type":["景点与地标"],"photo":"https://media-cdn.tripadvisor.com/media/photo-o/0e/e7/01/cd/outside.jpg"}
{"_id":4479376,"description":"DFS以及旗下T广场的420家店铺遍布全球各地,店内汇 聚逾700个奢华品牌的精选系列商品,致力于提供高级舒 适的购物空间和极具个性化的贴心服务,以满足旅行者的 所需所想。店内精选商品涵盖三大奢侈品类别——美妆、 香水及保健品;时装、腕表、珠宝及配饰;酒类、烟草、 美食及礼品。马上跟随DFS开启你的精彩旅程吧!","latitude":22.300045,"longitude":114.17954,"rating":7,"phone_number":"+852 2732 5229","address":"九龙尖沙咀东么地道77号华懋广场","name":"DFS旗下香港T广场尖东店","location":["尖沙咀","九龙","油尖旺区"],"type":["购物"],"photo":"https://media-cdn.tripadvisor.com/media/photo-o/0c/41/b2/25/fragrance.jpg"}
{"_id":3362987,"description":"这间毫不张扬的商场坐落于跑马地与铜锣湾之间，由六栋建筑组成，主营各大设计师品牌产品。 商场内有各大知名奢侈品品牌、儿童设计服饰和高端咖啡厅。","latitude":22.278788,"longitude":114.184845,"rating":8,"phone_number":"852-29075227","address":"铜锣湾希慎道33号和恩平道28号","name":"利园一至六期","location":["湾仔／铜锣湾","香港岛"],"type":["购物"],"photo":"https://media-cdn.tripadvisor.com/media/photo-s/02/c7/8d/5a/the-lee-gardens-mall.jpg"}
{"_id":8051405,"description":null,"latitude":22.338175,"longitude":114.14226,"rating":8,"phone_number":"+852 2100 2828","address":"九龙荔枝角青山道800号","name":"饶宗颐文化馆","location":["深水埗区","九龙"],"type":["购物","博物馆"],"photo":"https://media-cdn.tripadvisor.com/media/photo-o/0a/d1/da/7f/an-oasis-amid-the-hustle.jpg"}
{"_id":593168,"description":"李郑屋汉墓是1955年政府在李郑屋村夷平山地兴建徙置大厦时发现的。从墓室的墓砖铭文、形制以及出土文物等进行推断，李郑屋汉墓建于东汉时期。因此，在1988年李郑屋汉墓被列为法定古迹，才得以保存下来。汉墓内部人员为了李郑屋汉墓内部的温度和湿度保持稳定，决定墓室不对外开放，但来此参观的人们可以透过装嵌在羡道门口的玻璃可以窥探古墓的内部。曾经考古学家在李郑屋汉墓内发现了58件陪葬品，包含了饮食器、贮藏器等，另外还有8件青铜器的盆、铃、碗等，汉墓内并没有人骨。通过这些陪葬品让人们明白了“民以食为天”的说法，饮食在人们心目中的地位尤为重要。所以，这里烙印着人民的精神生活、物质生活的发展水平等引来了来到李郑屋汉墓旅游者们浓厚的兴趣。李郑屋汉墓博物馆详细介绍：李郑屋汉墓博物馆位于香港九龙深水埗，是香港历史博物馆三间分馆之一，由香港康乐及文化事务署管理，当中的建筑属于香港法定古迹。【历史】1955年于李郑屋邨发现的汉墓1955年8月，香港政府为应付市民对公共房屋的需求，计划在李郑屋村兴建徙置大厦。当建筑工人进行夷平山坡时，无意发现了一个东汉墓穴。香港大学中文系系主任林仰山教授（Frederick Sequier Drake，1892－1974）于是带领学生前往研究发掘。据当年的老街坊回忆，在汉墓正式出土前，曾有建筑工人用外衣包着古物运离现场。[1]（详见1955年8月11日《星岛日报》）参考了林仰山等考古学家评估后，香港市政局加建了钢筋水泥硬壳，以保护汉墓受风雨侵蚀。汉墓于1957年由香港市政局接管及开放予公众参观，墓内的出土文物都陈列在汉墓旁的展览馆内。1988年12月，李郑屋汉墓被列为香港法定古迹。由2005年1月起，为纪念汉墓出土50周年，康乐及文化事务署进行一系列的复修工程，包括在墓室顶部加建一个使用铁氟龙物料制成的天幕，防止雨水造成的渗漏，减低被侵蚀的机会，耗资达100万港元。墓室过去都没有采取过任何措施去保护它，在1970年代香港的教科书所见，当时的墓室外围亦只是一个长满草的小山坡。直到1990年代后期，前市政局才在外加建保护设施，并在墓内装设控制湿度的装置。今日汉墓的墓室并不对外开放，但是市民可以透过墓室门的玻璃，一睹这个建于东汉时期的墓穴。【建筑】根据考古学家推断，该墓建于东汉时期。而于汉墓出土了67件文物，当中包括最少33件完整文物，例如屋舍模型和各种陶器及青铜器等。然而，汉墓中并未发现任何骸骨。汉墓的布局为“十”字形，一共有4个墓室。墓室属砖室墓，由长40厘米、阔20厘米和厚5厘米的砖块砌成，而砖块刻有10多种花纹及文字“大吉番禺”，室入口道在正式出土前已遭破坏。【展览】汉墓现时已成为了康乐及文化事务署的一个博物馆。由于需要稳定汉墓内的温度和湿度，墓室并不对外开放，但参观者可透过装嵌在羡道门口的玻璃墙窥探墓室内部，参观者也可有汉墓旁边的展览馆，观看汉墓的地理环境、墓室结构和发现经过，以及汉朝时期的岭南文化。【地理】根据考古学家在发掘古墓时的周围环境推断，汉墓在兴建之时还在海边，但现时博物馆所在的山脚处已离开海岸非常远。即使扣除历年因填海而增加的土地，亦可以察觉到从东汉到清末的1800年间，从珠江带来的沙泥沉积下来的结果。","latitude":22.337807,"longitude":114.160095,"rating":7,"phone_number":"+852 2386 2863","address":"东京街41号","name":"李郑屋汉墓博物馆","location":["深水埗区","李郑屋","九龙"],"type":["博物馆"],"photo":"https://media-cdn.tripadvisor.com/media/photo-o/0f/bc/a8/a4/caption.jpg"}
{"_id":7146398,"description":null,"latitude":22.49051,"longitude":114.13885,"rating":8,"phone_number":"+852 2669 9186","address":"新界粉岭百和路66号","name":"蓬瀛仙馆","location":["新界","北区"],"type":["景点与地标"],"photo":"https://media-cdn.tripadvisor.com/media/photo-o/10/de/8b/d7/photo0jpg.jpg"}
{"_id":2008060,"description":"东荟城位处东涌市中心，集零售，娱乐及消闲设施于一身，更是一众品牌的特卖场集中地。","latitude":22.289454,"longitude":113.94101,"rating":7,"phone_number":"+852 2109 2933","address":"东涌达东路20号","name":"东荟城名店仓","location":["新界","离岛","东涌"],"type":["购物"],"photo":"https://media-cdn.tripadvisor.com/media/photo-o/08/fa/2e/45/citygate-outlets.jpg"}
{"_id":2050640,"description":"花园街，又称波鞋街，是时髦的年轻人购买最新款运动鞋的地方。这里有诸如阿迪达斯和耐克等大品牌，也有小众品牌、限量版以及订制鞋的精品店。","latitude":22.318592,"longitude":114.17141,"rating":7,"phone_number":"+852 2492 9291","address":"九龙油尖旺区亚皆老街 Kowloon","name":"香港波鞋街","location":["旺角","九龙","油尖旺区"],"type":["购物"],"photo":"https://media-cdn.tripadvisor.com/media/photo-o/0e/25/3e/33/sneakers-paradise.jpg"}
{"_id":456275,"description":"香港太空馆是香港康乐文化事务所下的博物馆之一，而且在太空馆经常举行各类的天文展览和讲座。在1957年，苏联发射了第一颗人造卫星，引起了不少人们对天文的关注，所以香港政府曾建议在维多利亚公园兴建了一个天文馆。由于香港的气象部门香港天文台已经使用了“天文”一词，为了避免引起混淆所以香港天文馆最后取名为香港太空馆。香港太空馆中深受游人喜爱的是天象厅，天象厅位于蛋形建筑内，是馆内一个最重要的部分也是全球最大的天象厅之一。香港虽然地小，但是却汇聚着特色。这里具有悠久的历史古迹，又设有先进的现代化建筑可以说是个最佳的度假之地。只要您踏足香港，千万不要错过香港太空馆景点。相信，享受了一个无穷的假期会让你感受到香港的乐趣。香港太空馆详细介绍：香港太空馆位于尖沙咀海旁，于1980年10月开放，是香港以推广天文及太空科学知识为主的天文博物馆。太空馆独特的蛋形外壳设计，早已成为香港特别行政区的一个地标。太空馆分东、西两翼。蛋形的东翼是太空馆的核心，内设何鸿燊天象厅、太空科学展览厅、全天域电影放映室、多个制作工场及办公室；西翼则设有天文展览厅、演讲厅、天文书店和办公室。何鸿燊天象厅装设有直径达23米的半球型银幕，除了设有东半球第一座全天域电影放映设备外，更是世界上第一座拥有全自动天象节目控制系统的天文博物馆。每年，香港太空馆制作两出多媒体的天象节目，并精选国外出色的全天域电影在馆内播放。展览厅分为两个主要部分：地下的太空科学展览厅和一楼的天文展览厅。香港太空馆每年举办不少推广活动：包括每月星空巡礼、天文快乐时光、趣味实验班、天文比赛、天文讲座、天文电影欣赏等。而内容丰富的太空馆网页，更是获取观星数据、基础天文知识、最新天文信息和教学资源的好地方。","latitude":22.294321,"longitude":114.171814,"rating":7,"phone_number":"+852 2721 0226","address":"九龙尖沙嘴梳士巴利道10号","name":"香港太空馆","location":["尖沙咀","九龙","油尖旺区"],"type":["博物馆"],"photo":"https://media-cdn.tripadvisor.com/media/photo-o/12/df/14/c0/renovated-space-museum.jpg"}
{"_id":311603,"description":"由2015年8月3日起,艺术馆正式闭馆约三年进行大型翻新及扩建工程。我们预计2019年就会以全新面貌重返尖沙咀。","latitude":22.293324,"longitude":114.1725,"rating":8,"phone_number":"+852 2721 0116","address":"九龙油尖旺区梳士巴利道10号 Yau Tsim Mong District, Kowloon","name":"香港艺术馆","location":["尖沙咀","九龙","油尖旺区"],"type":["博物馆"],"photo":"https://media-cdn.tripadvisor.com/media/photo-o/01/59/52/55/hong-kong-museum-of-art.jpg"}
{"_id":592379,"description":"香港文化中心是一个现代化的表演艺术中心，为本地市民及海外游客提供各类多采多姿的文娱艺术节目。香港文化中心的落成和启用揭开了香港文化艺术新的一页。香港文化中心由建筑署负责设计，于1979年奠基，1984年动工兴建，于1989年启用香港文化中心位处尖沙咀海傍的优越位置，设备先进，吸引各种一流的艺术表演，包括各式音乐会、歌剧、音乐剧、大型舞蹈及戏剧、实验剧场等演出，亦是举行电影欣赏、会议及展览等活动的理想场地。","latitude":22.293842,"longitude":114.17044,"rating":8,"phone_number":"+852 2734 2009","address":"梳士巴利道10号","name":"香港文化中心","location":["尖沙咀","九龙","油尖旺区"],"type":["博物馆","音乐会与演出"],"photo":"https://media-cdn.tripadvisor.com/media/photo-o/0e/7b/b8/19/caption.jpg"}
{"_id":537991,"description":"香港玉器市场位于甘肃街，是您选购玉器的好地方。玉器市场是由两个场地连在了一起而组成的，在市场内的玉器有价值从数元到十万元使很多的游客都前来香港玉器市场旅游。香港玉器市场售卖了玉石、工艺品等，而且也会有一些小巧便宜的饰物。中国人的眼里玉器是用于辟邪之用的，出门在外保平安的，所以玉器市场也是送礼的最佳选择。在市场内设有数百个玉器摊子，摊子上摆满了各种罕有的翠玉雕刻，很有味道。香港玉器市场内设有数百个玉器摊子，吸引了来自世界各地的收藏者。香港玉器市场详细介绍：位于九龙甘肃街天桥附近的玉器市场于1984启用，是选购廉价玉器纪念品的好地方。市场由两个相连的场地组成，东面的场地约有340个档位，西面则约有80个档位。这些档位售卖各类玉器，价钱由数元至数十万元不等，顾客包括本地人及游客。若想在早上出外溜达，不妨到玉器市场逛逛。在中国人的观念里，玉器可以避邪及定惊，出门在外则保平安。所以玉器绝对是送礼自用的上佳选择。玉器市场内的小摊多达数百家，货品包括摆设和小配饰，价格相宜。鉴别玉器是一种学问，所以如欲购买较贵重的玉器，最好有专家同行。在西面的场地，大约有十个代人写信的档位，提供多元化服务，包括中国书法、代写中、英文信件、填写申请表格和报税单，均属难得一见的古老行业。","latitude":22.309053,"longitude":114.16934,"rating":7,"phone_number":"+852 9485 2895","address":"甘肃街","name":"香港玉器市场","location":["九龙","油尖旺区","约旦／油麻地"],"type":["购物"],"photo":"https://media-cdn.tripadvisor.com/media/photo-o/0d/66/6c/9e/the-jade-market-in-mong.jpg"}
{"_id":311566,"description":"一家银行标志着一个国家的经济发展史。The Hong Kong and shangh ai Banking Corporation Limited译为香港上海汇丰银行有限公司，该银行是专门从事对华贸易的公司提供融资、结算服务的，而且于1864年在香港建立的，另外从1865年开始营业的，与此同时在上海也设立了一家汇丰银行分行，其次在北京、重庆、汉口等地都设立了分支机构。汇丰银行在发展的过程当中也经历了很多从而使汇丰银行慢慢的成熟起来。如汇丰银行曾推出的一种投资期权产品“双利存款”，因为汇丰银行并没有提供产品说明书，甚至导致欺骗和误导储户在存款确认函上签字，从而使无数储户的财产突然在一夜之间欠下了巨额等等，还有“打折股票”、“金融鸦片”等使汇丰银行更加成熟。现在的汇丰银行是香港最大的商业银行了，也吸引了很多来到汇丰银行旅游人士的到来。","latitude":22.28018,"longitude":114.15944,"rating":8,"phone_number":"+852 2544 0081","address":"皇后大道中 HSBC Central Plaza","name":"汇丰总行大厦","location":["中区","中环","香港岛"],"type":["景点与地标"],"photo":"https://media-cdn.tripadvisor.com/media/photo-o/01/e4/cd/09/hsbc-building.jpg"}
{"_id":8820310,"description":"在中国大多数地区，农历新年比阳历新年热闹多了。 但由于英国殖民的缘故，香港的阳历新年的热闹程度与任何西方城市相比，有过之而无不及。 维多利亚港是每年观看午夜倒数的绝佳地点，因为中国人精于烟火，您在去参加其他除夕派对之前，大可满怀期待欣赏一场壮观的音乐烟花表演。","latitude":22.29161,"longitude":114.17161,"rating":9,"phone_number":"+852 2414 5555","address":"维多利亚港两岸 維多利亞港兩岸","name":"香港除夕倒数","location":["九龙","油尖旺区"],"type":["活动"],"photo":"https://media-cdn.tripadvisor.com/media/photo-o/0e/25/7b/57/caption.jpg"}
{"_id":320540,"description":"香港会议展览中心是香港最新建筑群中的代表。在香港会议展览中心除了有大型会议以及展览作用外。会议展览中心还设立了两间五星级酒店、豪华公寓以及办公大楼，为来此旅游的各界人士提供了方便。在1997年香港回归的时候曾在香港会议展览中心举行过中国大典，那一伟大的时刻也这里成为了国际的焦点。到此旅游时您会看到美丽的飞鸟展翅式的形态的建筑。这些吸引了无数来自国内外的旅游者们的到来。香港会议展览中心曾经也被作为举行世界性会议主要的会议场地如：1997年世界银行年会，2000年亚洲电讯展等、2005年世界贸易组织部长级会议等等。香港会议展览中心详细介绍：位于湾仔博览道1号的香港会议展览中心，是该区最新建筑群中的代表者之一。除了作大型会议及展览用途之外，这里还有酒店两间、办公大楼和豪华公寓各一幢。而它的新翼则由填海扩建而成，内附大礼堂及大展厅数个，分布于三层建筑之中，是世界最大的展览馆之一。1997年7月1日香港回归中国大典亦在该处举行，成为国际瞩目的焦点，而它独特的飞鸟展翅式形态，也给美丽的维多利亚港增添了不少色彩。这里经常举办些商业会谈、流行展览、服装秀等。另外每天早上8点的升旗旗仪式，成为一大景观。","latitude":22.283333,"longitude":114.17222,"rating":8,"phone_number":"+852 2582 8888","address":"湾仔博览道1号","name":"香港会议展览中心","location":["湾仔／铜锣湾","香港岛","修顿球场"],"type":["景点与地标","旅客资源"],"photo":"https://media-cdn.tripadvisor.com/media/photo-o/09/55/67/5f/hong-kong-convention.jpg"}
{"_id":2050660,"description":"香港仔避风塘是指香港仔与鸭脷洲之间海面的避风塘。香港仔避风塘是水上人的家园，数百渔村居民仍保留着以渔船为家的传统生活方式，他们主要是鹤佬人。内里停泊满渔船的避风塘旁边，是一幢幢的新式大楼，新旧小区互相辉映，形成强烈对比。傍晚时分，万千闪烁的灯火倒映在水面上，别有一番浪漫的景致，游客可以搭乘舢舨游览避风塘，参观水上人的生活方式。每当风暴袭港，大大小小的船只不约而同地到避风港暂避；农历新年和传统节庆，尤其是在渔民的守护神天后的诞辰，渔民都会聚集避风港内举行各项庆典。根据渔民的传统信仰，热闹的竞赛和祭祀仪式，可蒙天后神佑，趋吉避凶。每年的端午节，龙舟竞渡都会在避风港举行。入夜后，珍宝海鲜舫和太白海鲜舫亮起闪亮灯饰，远观犹如海上的桂冠，夺目耀眼，可登船享用特色的美食，同时饱览船外醉人夜色。这里世界闻名的“珍宝王国 ”（曾名珍宝海鲜舫），是世界上最大的海上餐厅之一。珍宝海鲜舫楼高三层，装潢华丽，红色和金色的双龙盘绕柱上，再配衬其它传统装饰，气派非凡。为了近距离体验香港仔水上人家的作息生活，不少旅客都会选择登上闻名遐迩的珍宝王国，饱览渔港风情。珍宝王国是世界上最大的海上餐馆之一，楼高三层，装修仿照中国古代宫殿设计，金、红两色的飞龙盘旋而上，栩栩如生，配合其它传统装饰，美轮美奂，古色古香，令人目不暇接。海鲜美食及粤式佳肴新鲜美味，令人大快朵颐。旅行未动，点评先行。TripAdvisor360o全方位为您展现香港仔避风塘风采。让你玩的开心，吃的放心，住的省心。","latitude":22.24976,"longitude":114.15367,"rating":7,"phone_number":"+852 3105 0767","address":"仔","name":"香港仔避风塘","location":["香港仔","香港岛","南区"],"type":["景点与地标","其它"],"photo":"https://media-cdn.tripadvisor.com/media/photo-m/1280/16/14/50/c3/harbor.jpg"}
{"_id":1575066,"description":"\"    马湾公园挪亚方舟\n    根据远古记载原大体积而建的马湾公园挪亚方舟，于2009年5月25日对外开放。方舟占地27万平方呎，分布五层楼面的设施各有主题，包括方舟多媒体博览馆、方舟花园、方舟生命教育馆、跨越奇园、珍爱地球馆及临海餐厅，顶楼则是海景度假酒店。\"\n","latitude":22.348177,"longitude":114.06139,"rating":7,"phone_number":"+852 3411 8888","address":"新界马湾珀欣路33号","name":"挪亚方舟","location":["新界","荃湾","荃湾郊区西"],"type":["景点与地标","水上活动与游乐园","自然与公园","户外活动"],"photo":"https://media-cdn.tripadvisor.com/media/photo-m/1280/1a/14/e9/31/noah-s-ark-mascots.jpg"}
{"_id":3362610,"description":null,"latitude":22.31224,"longitude":114.225235,"rating":8,"phone_number":"852-31481200","address":"观塘道418号创纪之城五期","name":"香港Apm","location":["观塘","九龙","观塘区"],"type":["购物"],"photo":"https://media-cdn.tripadvisor.com/media/photo-o/10/a1/28/56/photo0jpg.jpg"}
{"_id":10020327,"description":"很少有人相信，橄榄球会成为亚洲最为瞩目的体育活动之一，但香港七人制橄榄球做到了。比赛每年在著名的香港体育馆举行，此项国际橄榄球巡回赛聚集了来自全球的 28 只队伍。在 3 天的赛程中，80000 名球迷观看最强橄榄球员间的强强对话，争夺最终的冠军头衔。如果您需要从紧张的体育比赛中缓解下心情，这里也有各种趣味活动以及音乐娱乐节目。","latitude":22.273003,"longitude":114.188484,"rating":9,"phone_number":"785225048311","address":"掃桿埔東院道55號大球場","name":"香港國際七人欖球賽","location":["香港岛"],"type":["活动"],"photo":"https://media-cdn.tripadvisor.com/media/photo-o/0b/88/3e/58/the-rest-of-the-stadium.jpg"}
{"_id":2210644,"description":"坐落于香港相对静谧的东海岸，距离铜锣湾乘港铁只有几个站。这是一个大型商场，适合全家人购物，有 170 家商店，还有一个滑冰场，可以租鞋存物。","latitude":22.286345,"longitude":114.21735,"rating":8,"phone_number":"+852 2568 8665","address":"太古城太古道18号","name":"太古城中心","location":["太古城西","东区","香港岛"],"type":["购物"],"photo":"https://media-cdn.tripadvisor.com/media/photo-o/06/cd/c6/04/city-plaza.jpg"}
{"_id":593022,"description":"大帽山亦称“大雾山”，位于“新界”中部，主峰高959米，为香港地区最高的山峰，因形似大帽而得名。山上有大帽山郊野公园，占地1400多公顷，是登山远足的理想地点。","latitude":22.409443,"longitude":114.13799,"rating":9,"phone_number":"86 2477 4896","address":"荃湾","name":"大帽山","location":["新界","荃湾"],"type":["自然与公园","户外活动"],"photo":"https://media-cdn.tripadvisor.com/media/photo-m/1280/02/01/ad/1b/view-from-midway-lookout.jpg"}
{"_id":7810755,"description":null,"latitude":22.283136,"longitude":114.16619,"rating":9,"phone_number":"+852 2520 2321","address":"夏悫道","name":"添马公园","location":["中区","香港岛"],"type":["自然与公园"],"photo":"https://media-cdn.tripadvisor.com/media/photo-o/07/8b/89/4f/tamar-park.jpg"}
{"_id":17639106,"description":null,"latitude":22.294193,"longitude":114.1742,"rating":8,"phone_number":"+852 3723 0335","address":"Victoria Dockside, 18 Salisbury Road, Tsim Sha Tsui","name":"K11 MUSEA","location":["尖沙咀","九龙","油尖旺区"],"type":["购物"],"photo":"https://media-cdn.tripadvisor.com/media/photo-m/1280/17/fe/5d/92/getlstd-property-photo.jpg"}
{"_id":2151006,"description":"又一城地理位置优越，乘地铁便可轻松抵达。该购物中心以中档消费为主，囊括了 200 多个国际人气品牌和广受欢迎的本地服饰品牌，其中包括：佐丹奴、Moiselle、Peace 和 Staccato。","latitude":22.337185,"longitude":114.17497,"rating":8,"phone_number":"+852 2844 2223","address":"九龙塘达之路80号","name":"又一城","location":["深水埗区","九龙"],"type":["购物"],"photo":"https://media-cdn.tripadvisor.com/media/photo-o/12/33/c6/bd/interior-of-the-shopping.jpg"}
{"_id":3362583,"description":null,"latitude":22.315987,"longitude":114.17003,"rating":8,"phone_number":"+852 2279 4682","address":"旺角弥敦道580号","name":"信和中心","location":["旺角","九龙","油尖旺区"],"type":["购物"],"photo":"https://media-cdn.tripadvisor.com/media/photo-o/0a/a6/fe/10/shops-1.jpg"}
{"_id":4492536,"description":null,"latitude":22.315378,"longitude":113.93463,"rating":8,"phone_number":"+852 2359 3300","address":"赤腊角国际机场1号客运大楼","name":"香港国际机场1号客运大楼购物区","location":["新界","离岛","东涌"],"type":["购物"],"photo":"https://media-cdn.tripadvisor.com/media/photo-o/12/9a/4d/99/20180411-071732-largejpg.jpg"}
{"_id":2166000,"description":"这家大型商场共有 350 多家商店、50 家餐厅和亚洲首家史诺比开心世界，既能迎合各类顾客的品味偏好，又能满足他们的消费预算。 由于深受当地人和旅行者的青睐，因此周末常会人潮拥挤。","latitude":22.382036,"longitude":114.18838,"rating":8,"phone_number":"+852 2608 9329","address":"新界沙田乡事会路138号","name":"新城市中央广场","location":["新界","沙田"],"type":["购物","景点与地标"],"photo":"https://media-cdn.tripadvisor.com/media/photo-m/1280/16/9e/f5/53/photo0jpg.jpg"}
{"_id":5040013,"description":null,"latitude":22.303339,"longitude":114.16021,"rating":9,"phone_number":"+852 2730 0800","address":"柯士甸道西1号","name":"环球贸易广场","location":["九龙","油尖旺区"],"type":["购物","景点与地标"],"photo":"https://media-cdn.tripadvisor.com/media/photo-o/09/35/b5/ac/international-commerce.jpg"}
{"_id":315464,"description":"香港海防博物馆举行了“中山舰文物展”，其中展出了50多件有从湖北省运到的中山舰历史文物以及历史照片，都让游客们深刻的认识到中山舰宏大的规模，以及在中国历史上所经历的历程。这里最吸引您的是1997年的一艘炮舰从长江里捞起从而结束了半个世纪的黑暗，见到这艘炮舰会让你亲眼见证了中国近代的历史的混乱。中山舰，原名永丰舰，是1925年为纪念孙中山先生而得名的，永丰舰是当时清政府向日本订购的一艘炮舰。香港海防博物馆中的中山舰专用船坞建成，相信香港海防博物馆中山舰将会发展成为中国第一座水上流动的香港海防博物馆。香港海防博物馆详细介绍：香港海防博物馆是首间以香港海岸防御历史为主题的博物馆。这所博物馆坐落在建于1887年的鲤鱼门炮台上。1941年日本侵略香港时，鲤鱼门炮台曾经成为一个重要的战场，当时不少守军都在战斗中英勇牺牲。博物馆位于港岛筲箕湾，全馆面积约34200平方米，是由具百年历史的旧鲤鱼门炮台修建而成。前市政局鉴于鲤鱼门炮台的历史价值及建筑特色，于一九九三年决定将之修复，并改建成一所以香港海防历史为主题的博物馆。博物馆中留下许多昔日遗迹，其中战时堡垒是博物馆的主体建筑物，修复后以特制的帐篷覆盖。堡垒分为上、下两层，下层为常设展览厅，陈列常设展览「香港海防六百年」；上层为专题展览厅，并设有儿童角，可让儿童自由创作，寓学习于游戏。堡垒入口处另有礼品店，供游客选购书籍及纪念品。餐厅及洗手间则设于堡垒后方一幢新建筑物内，游客在参观展览后可在此稍作休息，一边享用美食，一边饱览维港景色。而另一主要的景点便是古迹径。古迹径沿途有十多处景点，可让参观者亲身体验昔日鲤鱼门炮台的要冲位置。由于古迹径的军事遗迹分布在岬角不同位置，地势陡峭，梯级较多，参观者宜量力而为，小朋友和长者更应在体力较佳的成人陪同下方可游览。而常设展览「香港海防六百年」亦是深受游客欢迎的展览项目。常设展览设于鲤鱼门堡垒，堡垒内有十八间地下室，有通道相连，装配了现代化的博物馆设备，展示香港自明清两代、英治时期、抗日战争以至回归以后的海防历史。除了文字及图片说明外，还展出四百多件历史文物，再配合多媒体视听节目，使参观者对香港海防历史有进一步的认识。","latitude":22.283009,"longitude":114.23434,"rating":9,"phone_number":"+852 2569 1500","address":"肖其湾,东喜道175号","name":"香港海防博物馆","location":["阿公岩","东区","香港岛"],"type":["博物馆"],"photo":"https://media-cdn.tripadvisor.com/media/photo-o/10/ac/27/8e/view-from-the-top.jpg"}
{"_id":1759873,"description":null,"latitude":22.30548,"longitude":114.171616,"rating":8,"phone_number":"+852 3511 2222","address":"弥敦道301-309号","name":"裕华国货","location":["九龙","油尖旺区","约旦／油麻地"],"type":["购物"],"photo":"https://media-cdn.tripadvisor.com/media/photo-o/09/64/8f/12/caption.jpg"}
{"_id":10148796,"description":null,"latitude":22.312527,"longitude":114.21624,"rating":9,"phone_number":"+852 2346 8538","address":"观塘绕道","name":"观塘海滨花园","location":["观塘","九龙","观塘区"],"type":["景点与地标","自然与公园"],"photo":"https://media-cdn.tripadvisor.com/media/photo-o/0d/7c/14/44/promenade.jpg"}
{"_id":3362678,"description":null,"latitude":22.239271,"longitude":114.152466,"rating":7,"phone_number":"+852 2554 9189","address":"岛鸭脷洲海怡半岛利荣街2号","name":"新海怡广场","location":["海怡","香港岛","南区"],"type":["购物"],"photo":"https://media-cdn.tripadvisor.com/media/photo-o/0d/ca/0f/36/photo0jpg.jpg"}
{"_id":9996702,"description":null,"latitude":22.296541,"longitude":114.17575,"rating":7,"phone_number":"+852 2302 1762","address":"尖沙咀东海滨平台花园","name":"Garden of Stars","location":["尖沙咀","九龙","油尖旺区"],"type":["景点与地标"],"photo":"https://media-cdn.tripadvisor.com/media/photo-o/0c/68/00/eb/garden-of-stars.jpg"}
{"_id":7149796,"description":null,"latitude":22.289633,"longitude":114.14551,"rating":8,"phone_number":"+852 2540 6708","address":"西营盘","name":"中山纪念公园","location":["中区","香港岛"],"type":["自然与公园"],"photo":"https://media-cdn.tripadvisor.com/media/photo-o/14/e1/e5/50/20180925-084959-largejpg.jpg"}
{"_id":5116872,"description":null,"latitude":22.298119,"longitude":114.17044,"rating":9,"phone_number":"+852 2208 4400","address":"九龙尖沙咀海防道","name":"香港文物探知馆","location":["尖沙咀","九龙","油尖旺区"],"type":["博物馆"],"photo":"https://media-cdn.tripadvisor.com/media/photo-o/05/45/9f/22/hong-kong-heritage-discovery.jpg"}
{"_id":8705162,"description":null,"latitude":22.44369,"longitude":114.03659,"rating":8,"phone_number":"+852 2651 1861","address":"新界元朗朗日路8-9及元龙街9号","name":"形点","location":["新界","元朗"],"type":["购物"],"photo":"https://media-cdn.tripadvisor.com/media/photo-o/0f/ac/91/37/1.jpg"}
{"_id":3381596,"description":"The ONE 商场有23层，是香港最高的零售商场，也是最潮的商场之一。从奢侈品手表到化妆品，从生活物品到尖端时尚商品，在这里你能找到各种各样的商品。","latitude":22.299723,"longitude":114.17256,"rating":8,"phone_number":"+852 2180 6178","address":"弥敦道100号","name":"The One 商场","location":["尖沙咀","九龙","油尖旺区"],"type":["购物"],"photo":"https://media-cdn.tripadvisor.com/media/photo-o/0e/96/7a/d4/the-one.jpg"}
{"_id":590918,"description":"油麻地（亦写作油麻地），英文:YauMaTei，位于香港九龙半岛南部，行政上属于油尖旺区。其实，油麻地之名与油麻地天后庙有密切关系。因为当时天后庙前的土地是渔民晒船上麻缆的地方。不少经营补渔船的桐油及麻缆商店在那里开设，故被称为“油麻地”。与香港其他旧区一样，油麻地的楼宇多数是地下和二楼为商业用途，其余的楼层是住宅。香港的著名街道庙街就在区内；庙街因天后古庙而得名。每天晚上庙街的马路会摆满售卖各式各样货品和食品的摊档，有如台湾的夜市。由于货品价格比较便宜，而且街道充满地道特式，庙街已成为旅客的旅游点。该区的广华医院是九龙第一所医院，成立于1911年。油麻地是历史悠久的地区，有不少历史建筑物，例如油麻地戏院、油麻地抽水站宿舍（俗称“红砖屋”）和油麻地警署。此外，果栏、玉器市场和俗称榕树头的油麻地休憩公园等地方，都极具特色。油麻地还有旧式茶楼得如酒家。弥敦道有部分在油麻地。交通地铁的油麻地站属于荃湾线和_观塘线，而更是观塘线西行方向的终点站。油麻地小轮曾是香港最主要的渡轮公司。教育九龙华仁书院于1952年迁校到油麻地。","latitude":22.37395,"longitude":114.10169,"rating":8,"phone_number":"+852 2807 6543","address":"九龙","name":"油麻地","location":["新界","荃湾"],"type":["景点与地标","其它"],"photo":"https://media-cdn.tripadvisor.com/media/photo-o/03/6e/d5/af/caption.jpg"}
{"_id":3362436,"description":"置地广场是顶级购物和品位生活的代名词。其悠久历史始自1904年，时至今日，这里成为置地公司中环物业的高级时尚购物点，其中包括4座地标建筑：置地广场中庭、置地历山、置地遮打和置地太子。这些地标建筑由人行天桥相连，云集了约208家最为精挑细选的名店和食府，荟萃琳琅满目的高级时装和配饰、巧夺天工的钟表珠宝、别致矜贵的家居用品、贴心专业的美容护理服务，以及让味蕾尝鲜的中外美馔，为品位非凡的顾客呈献最惬意称心的购物体验。","latitude":22.281265,"longitude":114.15802,"rating":8,"phone_number":"+852 2500 0555","address":"中环皇后大道中15号","name":"置地广场 (香港)","location":["中区","中环","香港岛"],"type":["购物","景点与地标"],"photo":"https://media-cdn.tripadvisor.com/media/photo-m/1280/15/97/a5/78/landmark-atrium-cocoa.jpg"}
