[
    {
        "name": "लेलेचा",
        "area": "सूज़ौ औद्योगिक पार्क",
        "cuisine": "रोटी और मिठाई",
        "pricerange": "सस्ता",
        "metro_station": "true",
        "per_capita_consumption": "44 युआन",
        "address": "बी 1, नॉर्थ सेक्शन, सूज़ौ सेंटर, जिंगगैंग स्ट्रीट",
        "phone_number": "0512-66363836",
        "score": "4.5",
        "business_hours": "10:00-22:00, सोमवार से रविवार",
        "dishes": "स्टारी कस्टर्ड बन"
    },
    {
        "name": "एचओयू जीए एफईआई",
        "area": "वुझोंग जिला",
        "cuisine": "रोटी और मिठाई",
        "pricerange": "moderate",
        "metro_station": "false",
        "per_capita_consumption": "58 युआन",
        "address": "South Commercial Street, Shihu Scenic Area, Shihu West Road",
        "phone_number": "0512-68210779",
        "score": "4.8",
        "business_hours": "09:30-23:00, सोमवार से रविवार",
        "dishes": "Chocolate Muffins"
    },
    {
        "name": "फॉक्स के घर का दही",
        "area": "गुसु जिले",
        "cuisine": "रोटी और मिठाई",
        "pricerange": "सस्ता",
        "metro_station": "true",
        "per_capita_consumption": "16 युआन",
        "address": "No. 256, Pingjiang Road (near Baita East Road)",
        "phone_number": "139-1317-0170",
        "score": "4.5",
        "business_hours": "10:00-19:00, Monday to Sunday",
        "dishes": "घर का बना दही"
    },
    {
        "name": "काई झी झाई",
        "area": "गुसु जिले",
        "cuisine": "रोटी और मिठाई",
        "pricerange": "सस्ता",
        "metro_station": "true",
        "per_capita_consumption": "38 yuan",
        "address": "No. 91, Guanqian Street, Gusu District, Suzhou City",
        "phone_number": "0512-67274512",
        "score": "4.3",
        "business_hours": "08:30-21:30, Monday to Sunday",
        "dishes": "मीठे किण्वित-चावल के साथ स्कोन"
    },
    {
        "name": "लारोम",
        "area": "सूज़ौ औद्योगिक पार्क",
        "cuisine": "रोटी और मिठाई",
        "pricerange": "थोड़ा महंगा",
        "metro_station": "true",
        "per_capita_consumption": "412 युआन",
        "address": "बी 3-19, 3 एफ, साउथ सेक्शन, सूज़ौ सेंटर, नंबर 68, सक्सियू रोड",
        "phone_number": "0512-69881018",
        "score": "4.5",
        "business_hours": "11: 30-22: 00, सोमवार से रविवार",
        "dishes": "मशरूम सूप की क्रीम"
    },
    {
        "name": "यामाजाकी बेकरी",
        "area": "सूज़ौ न्यू डिस्ट्रिक्ट",
        "cuisine": "रोटी और मिठाई",
        "pricerange": "सस्ता",
        "metro_station": "true",
        "per_capita_consumption": "26 युआन",
        "address": "इज़ुमिया डिपार्टमेंट स्टोर का बी 1 एफ, नंबर 211, चांगजियांग रोड",
        "phone_number": "0512-62396721",
        "score": "4.6",
        "business_hours": "10:00-22:00, सोमवार से रविवार",
        "dishes": "रानी ब्रेड"
    },
    {
        "name": "गुइमिजिया",
        "area": "Wujiang District",
        "cuisine": "रोटी और मिठाई",
        "pricerange": "सस्ता",
        "metro_station": "false",
        "per_capita_consumption": "23 yuan",
        "address": "No. 3, Xitanghe Road",
        "phone_number": "0512-63336664",
        "score": "4.8",
        "business_hours": "09:30-21:30, Monday to Sunday",
        "dishes": "अंडा और मांस मूनकेक"
    },
    {
        "name": "नोंग्लेयुआन चारकोल फायर बारबेक्यू",
        "area": "गुसु जिले",
        "cuisine": "Korean",
        "pricerange": "moderate",
        "metro_station": "true",
        "per_capita_consumption": "88 युआन",
        "address": "A502, शिचेंग योंगजी बिल्डिंग का 5F, नंबर 19, गुआंगजी साउथ रोड",
        "phone_number": "0512-68659822",
        "score": "4.6",
        "business_hours": "11:00-14:00 और 16:30–21:30, सोमवार से रविवार",
        "dishes": "स्टोन पॉट राइस"
    },
    {
        "name": "बनयुआन प्राइवेट होम कुजीन",
        "area": "गुसु जिले",
        "cuisine": "Jiangsu-Zhejiang",
        "pricerange": "थोड़ा महंगा",
        "metro_station": "false",
        "per_capita_consumption": "204 युआन",
        "address": "नंबर 3, चुआनफांग गली, पिंगजियांग रोड के उत्तर में",
        "phone_number": "139-6217-0368",
        "score": "4.7",
        "business_hours": "11:30-14:00 17:30-21:30, Monday to Sunday",
        "dishes": "गुलाब के स्वाद वाली फ्राइड मछली"
    },
    {
        "name": "सोंघेलो रेस्टोरेंट",
        "area": "गुसु जिले",
        "cuisine": "Jiangsu-Zhejiang",
        "pricerange": "थोड़ा महंगा",
        "metro_station": "true",
        "per_capita_consumption": "150 युआन",
        "address": "नंबर 72, ताइजियन लेन (जुआनमियाओ मंदिर के पास)",
        "phone_number": "0512-67700688",
        "score": "3.5",
        "business_hours": "11:00-13:30 और 17:00-20:30, सोमवार से रविवार",
        "dishes": "मीठा और खट्टा मंदारिन मछली"
    },
    {
        "name": "चेंगदू में मिस फू",
        "area": "गुसु जिले",
        "cuisine": "सिचुआन",
        "pricerange": "moderate",
        "metro_station": "false",
        "per_capita_consumption": "73 युआन",
        "address": "पारंपरिक चीनी चिकित्सा के सूज़ौ संग्रहालय के बगल में जिंगडे रोड और ज़ुएशी स्ट्रीट के चौराहे पर",
        "phone_number": "0512-67299832",
        "score": "4.6",
        "business_hours": "11: 00-24: 00, सोमवार से रविवार",
        "dishes": "ब्राउन शुगर ग्लूटिनस राइस केक"
    },
    {
        "name": "लाओटियांकियाओ फ्रॉग हॉट पॉट",
        "area": "गुसु जिले",
        "cuisine": "हॉटपॉट",
        "pricerange": "थोड़ा महंगा",
        "metro_station": "false",
        "per_capita_consumption": "120 युआन",
        "address": "नंबर 54, ज़ूशी स्ट्रीट",
        "phone_number": "0512-65816338",
        "score": "4.6",
        "business_hours": "सोमवार से रविवार तक पूरे दिन",
        "dishes": "बुलफ्रॉग"
    },
    {
        "name": "तांग पैलेस समुद्री भोजन रेस्तरां",
        "area": "गुसु जिले",
        "cuisine": "Cantonese",
        "pricerange": "थोड़ा महंगा",
        "metro_station": "true",
        "per_capita_consumption": "135 युआन",
        "address": "5 एफ, मेट्रो मॉल की ईस्ट बिल्डिंग, नंबर 245, गुआनकियान स्ट्रीट",
        "phone_number": "0512-69168288",
        "score": "4.6",
        "business_hours": "10:00-22:00, सोमवार से रविवार",
        "dishes": "किण्वित सोयाबीन रस के साथ उबले हुए चिकन पंजे"
    },
    {
        "name": "बेजियांग रेस्टोरेंट",
        "area": "गुसु जिले",
        "cuisine": "नॉर्थवेस्टर्न",
        "pricerange": "सस्ता",
        "metro_station": "true",
        "per_capita_consumption": "67 युआन",
        "address": "नंबर 428, ईस्ट गंजियांग रोड",
        "phone_number": "0512-67557020",
        "score": "4.4",
        "business_hours": "10:00-22:00, सोमवार से रविवार",
        "dishes": "शिनजियांग बिग प्लेट चिकन"
    },
    {
        "name": "ली ली जिओ चाओ",
        "area": "गुसु जिले",
        "cuisine": "पूर्वोत्तर चीनी व्यंजन",
        "pricerange": "सस्ता",
        "metro_station": "false",
        "per_capita_consumption": "29 yuan",
        "address": "नंबर 1 शिज़ी स्ट्रीट, सूचो विश्वविद्यालय का वेस्ट गेट",
        "phone_number": "180-1350-3488",
        "score": "4.5",
        "business_hours": "08:00-21:00, सोमवार से रविवार",
        "dishes": "दो बार पकाया हुआ सूअर"
    },
    {
        "name": "डोंगवु नूडल हाउस",
        "area": "गुसु जिले",
        "cuisine": "फ़ास्ट फ़ूड",
        "pricerange": "सस्ता",
        "metro_station": "true",
        "per_capita_consumption": "18 युआन",
        "address": "No. 22, North Tongjing Road",
        "phone_number": "0512-65707783",
        "score": "4.7",
        "business_hours": "06:00-14:00 16:30-19:00, Monday to Sunday",
        "dishes": "चिकन सूप नूडल"
    },
    {
        "name": "डेयूलू",
        "area": "सूज़ौ औद्योगिक पार्क",
        "cuisine": "Jiangsu-Zhejiang",
        "pricerange": "थोड़ा महंगा",
        "metro_station": "false",
        "per_capita_consumption": "176 yuan",
        "address": "No. 22, Ligong Causeway Road",
        "phone_number": "0512-62656999",
        "score": "4.3",
        "business_hours": "10:30-14:00 16:30-21:00, Monday to Sunday",
        "dishes": "अनुशंसित डिश टोफू के साथ इसका ब्रेज़्ड केकड़ा"
    },
    {
        "name": "वान्युतिंग हेजियारीबेन भोजन टेपपान्याकी",
        "area": "सूज़ौ औद्योगिक पार्क",
        "cuisine": "Japanese",
        "pricerange": "थोड़ा महंगा",
        "metro_station": "false",
        "per_capita_consumption": "177 युआन",
        "address": "1 एफ, हुबिन शिन्टियांडी लेकसाइड बिल्डिंग, नंबर 158, जिंगगैंग स्ट्रीट",
        "phone_number": "0512-67678177",
        "score": "4.5",
        "business_hours": "10:00-15:00 और 17:00-22:30, सोमवार से रविवार",
        "dishes": "सैल्मन"
    },
    {
        "name": "दादी का घर",
        "area": "सूज़ौ औद्योगिक पार्क",
        "cuisine": "Jiangsu-Zhejiang",
        "pricerange": "सस्ता",
        "metro_station": "true",
        "per_capita_consumption": "63 युआन",
        "address": "4 एफ, हार्मनी सिटी, नंबर 269, वांग डन रोड, सूज़ौ इंडस्ट्रियल पार्क",
        "phone_number": "0512-62857757",
        "score": "4.5",
        "business_hours": "सोमवार से रविवार तक 11: 00-14: 00 और 16: 30-21: 00",
        "dishes": "ग्रैंडमास  रेड ब्रेज़्ड पोर्क"
    },
    {
        "name": "वांग स्टेक",
        "area": "सूज़ौ औद्योगिक पार्क",
        "cuisine": "पश्चिमी",
        "pricerange": "थोड़ा महंगा",
        "metro_station": "true",
        "per_capita_consumption": "405 युआन",
        "address": "दूसरी मंजिल पर, सूज़ौ एवेन्यू ईस्ट और हुआची स्ट्रीट के चौराहे पर",
        "phone_number": "0512-62567071",
        "score": "4.6",
        "business_hours": "11:30-14:00 और 17:30-21:00, सोमवार से रविवार",
        "dishes": "ताई-बोने बीफस्टेक"
    },
    {
        "name": "हैडिलाओ हॉट पॉट",
        "area": "सूज़ौ औद्योगिक पार्क",
        "cuisine": "हॉटपॉट",
        "pricerange": "थोड़ा महंगा",
        "metro_station": "false",
        "per_capita_consumption": "127 युआन",
        "address": "It is on 4F of Saige Digital Plaza, No. 318, Suya Road.",
        "phone_number": "0512-67603337",
        "score": "4.8",
        "business_hours": "09:00-07:00, सोमवार से रविवार",
        "dishes": "यह अनुशंसा की जाती है कि आप टमाटर के बर्तन"
    },
    {
        "name": "ज़िबेई रेस्टोरेंट",
        "area": "सूज़ौ औद्योगिक पार्क",
        "cuisine": "नॉर्थवेस्टर्न",
        "pricerange": "moderate",
        "metro_station": "true",
        "per_capita_consumption": "92 युआन",
        "address": "4 एफ, हार्मनी सिटी, नंबर 269, वांग डन रोड",
        "phone_number": "400-8207320",
        "score": "4.6",
        "business_hours": "10: 30-21: 30, सोमवार से रविवार",
        "dishes": "बड़ी गाय की हड्डी"
    },
    {
        "name": "झेन पिन यू टीहाउस",
        "area": "सूज़ौ औद्योगिक पार्क",
        "cuisine": "Cantonese",
        "pricerange": "moderate",
        "metro_station": "true",
        "per_capita_consumption": "99 युआन",
        "address": "नंबर 133, तियानजियांग गार्डन, नंबर 386, सुक्सियू रोड",
        "phone_number": "0512-62568777",
        "score": "4.4",
        "business_hours": "10: 30-21: 30, सोमवार से रविवार",
        "dishes": "भुना हुआ हंस"
    },
    {
        "name": "रिवरसाइड ग्रिल्ड फिश",
        "area": "सूज़ौ औद्योगिक पार्क",
        "cuisine": "सिचुआन",
        "pricerange": "moderate",
        "metro_station": "true",
        "per_capita_consumption": "90 युआन",
        "address": "हार्मनी कॉन्स्टेलशन प्लाजा सिटी, नंबर 269, वांग डन रोड",
        "phone_number": "0512-67634656",
        "score": "4.3",
        "business_hours": "10: 30-22: 00, सोमवार से रविवार",
        "dishes": "अद्वितीय सॉस में ग्रील्ड होल मछली"
    },
    {
        "name": "किंग हे गु",
        "area": "सूज़ौ औद्योगिक पार्क",
        "cuisine": "Korean",
        "pricerange": "थोड़ा महंगा",
        "metro_station": "false",
        "per_capita_consumption": "154 yuan",
        "address": "नंबर 21 बिल्डिंग, ली गोंगडी फेज 3",
        "phone_number": "0512-67635689",
        "score": "4.8",
        "business_hours": "11:30-21: 00, सोमवार से रविवार",
        "dishes": "Kimchi Pie"
    },
    {
        "name": "शिन हुआ शी बीफ राइस नूडल",
        "area": "सूज़ौ औद्योगिक पार्क",
        "cuisine": "फ़ास्ट फ़ूड",
        "pricerange": "सस्ता",
        "metro_station": "false",
        "per_capita_consumption": "24 yuan",
        "address": "सूज़ौ स्टेज के 2F पर, नंबर 9 हौदई स्ट्रीट",
        "phone_number": "0512-62811808",
        "score": "4.6",
        "business_hours": "09:00-20:00, Monday to Sunday",
        "dishes": "Noodle of the Essence of Beef Offal"
    },
    {
        "name": "गुडमैन फोक स्नैक्स",
        "area": "वुझोंग जिला",
        "cuisine": "फ़ास्ट फ़ूड",
        "pricerange": "सस्ता",
        "metro_station": "true",
        "per_capita_consumption": "42 युआन",
        "address": "No. 47-1, Jinshan Road (No. B1001-2, Floor B1, Mudu Tianhong Mall)",
        "phone_number": "0512-83989318",
        "score": "4.5",
        "business_hours": "10:00-20:30, सोमवार से रविवार",
        "dishes": "मसालेदार गोभी और मिर्च के साथ उबला हुआ बोनलेस मछली"
    },
    {
        "name": "लाओफेंगटिंग",
        "area": "वुझोंग जिला",
        "cuisine": "Jiangsu-Zhejiang",
        "pricerange": "moderate",
        "metro_station": "false",
        "per_capita_consumption": "94 yuan",
        "address": "बिल्डिंग 5, पटाया अवकाश और मनोरंजन प्लाजा, नंबर 55, लिंटियन रोड, मुडू",
        "phone_number": "0512-66277557",
        "score": "4.6",
        "business_hours": "11:00-13:30 और 17:00-20:30, सोमवार से रविवार",
        "dishes": "मीठा और खट्टा मंदारिन मछली"
    },
    {
        "name": "यांग गुआन गु रेन",
        "area": "वुझोंग जिला",
        "cuisine": "नॉर्थवेस्टर्न",
        "pricerange": "moderate",
        "metro_station": "false",
        "per_capita_consumption": "87 yuan",
        "address": "3 एफ मंजिल पर है, सीआर मोहरा, नंबर 128, जिउहुआ रोड की लिफ्ट के बगल में",
        "phone_number": "0512-65074650",
        "score": "4.8",
        "business_hours": "10:00-22:00, सोमवार से रविवार",
        "dishes": "शालोट के साथ तला हुआ मटन"
    },
    {
        "name": "सिचुआन जियांग तियान ज़िया हॉट पॉट",
        "area": "वुझोंग जिला",
        "cuisine": "हॉटपॉट",
        "pricerange": "moderate",
        "metro_station": "false",
        "per_capita_consumption": "97 युआन",
        "address": "Floor 1, Building 1, No. 1109, Wuzhong Avenue, Yuexi Street, Wuzhong Economic Development Zone, Suzhou",
        "phone_number": "0512-66171777",
        "score": "4.4",
        "business_hours": "11:00-23:30, Monday to Sunday",
        "dishes": "स्नोफ्लेक बीफ"
    },
    {
        "name": "वन प्लस कन्वेयर बेल्ट सुशी",
        "area": "वुझोंग जिला",
        "cuisine": "Japanese",
        "pricerange": "सस्ता",
        "metro_station": "false",
        "per_capita_consumption": "58 युआन",
        "address": "1 एफ, एयॉन मॉल, नंबर 188, सुज़ेंटाओ रोड, यूक्सी",
        "phone_number": "0512-65884527",
        "score": "4.4",
        "business_hours": "10:00-22:00, सोमवार से रविवार",
        "dishes": "फोई ग्रास"
    },
    {
        "name": "नायलाओशिगुआंग",
        "area": "वुझोंग जिला",
        "cuisine": "पश्चिमी",
        "pricerange": "moderate",
        "metro_station": "true",
        "per_capita_consumption": "85 युआन",
        "address": "1 एफ, बिल्डिंग 13, मुडू स्टूडियो",
        "phone_number": "0512-67087949",
        "score": "4.7",
        "business_hours": "09:30-21:00, सोमवार से रविवार",
        "dishes": "स्पेगेटी बोलोग्नीज़"
    },
    {
        "name": "सियोल कोरियन क्यूज़ीन",
        "area": "वुझोंग जिला",
        "cuisine": "Korean",
        "pricerange": "moderate",
        "metro_station": "true",
        "per_capita_consumption": "81 युआन",
        "address": "Lifeng Plaza 1F, No. 399, Baodaidong Road",
        "phone_number": "139-1359-2929",
        "score": "4.7",
        "business_hours": "10: 30-21: 00, सोमवार से रविवार",
        "dishes": "स्टोन पॉट राइस"
    },
    {
        "name": "पूर्वोत्तर रेस्तरां",
        "area": "वुझोंग जिला",
        "cuisine": "पूर्वोत्तर चीनी व्यंजन",
        "pricerange": "सस्ता",
        "metro_station": "false",
        "per_capita_consumption": "49 युआन",
        "address": "Near the intersection of Xushi Street and Zhongshi Street",
        "phone_number": "0512-66310773",
        "score": "4.3",
        "business_hours": "10: 30-21: 00, सोमवार से रविवार",
        "dishes": "Cooked Pork Slices"
    },
    {
        "name": "स्पाइसी मेमोरी",
        "area": "सूज़ौ न्यू डिस्ट्रिक्ट",
        "cuisine": "सिचुआन",
        "pricerange": "moderate",
        "metro_station": "true",
        "per_capita_consumption": "75 युआन",
        "address": "नंबर 162, तायुआन रोड, सूज़ौ न्यू डिस्ट्रिक्ट",
        "phone_number": "0512-68249987",
        "score": "4.3",
        "business_hours": "10:30-01:00, सोमवार से रविवार",
        "dishes": "चिली फिश हेड"
    },
    {
        "name": "आओबानियन हॉट पॉट",
        "area": "सूज़ौ न्यू डिस्ट्रिक्ट",
        "cuisine": "हॉटपॉट",
        "pricerange": "थोड़ा महंगा",
        "metro_station": "true",
        "per_capita_consumption": "127 युआन",
        "address": "गोल्डन ईगल इंटरनेशनल शॉपिंग सेंटर, नंबर 298, शीशन रोड के 6F",
        "phone_number": "0512-68783880",
        "score": "4.2",
        "business_hours": "11:00-22:00, Monday to Sunday",
        "dishes": "झींगा गेंदों"
    },
    {
        "name": "ड्रीम ऑफ ताओयुआन",
        "area": "सूज़ौ न्यू डिस्ट्रिक्ट",
        "cuisine": "Jiangsu-Zhejiang",
        "pricerange": "सस्ता",
        "metro_station": "true",
        "per_capita_consumption": "31 yuan",
        "address": "इज़ुमिया डिपार्टमेंट स्टोर का बी 1 एफ, नंबर 211, चांगजियांग रोड",
        "phone_number": "0512-68207978",
        "score": "4.5",
        "business_hours": "10:00-21:30, सोमवार से रविवार",
        "dishes": "टोफू पुडिंग"
    },
    {
        "name": "ले ब्ले डी'ओर शराब की भठ्ठी रेस्टोरेंट",
        "area": "सूज़ौ न्यू डिस्ट्रिक्ट",
        "cuisine": "पश्चिमी",
        "pricerange": "थोड़ा महंगा",
        "metro_station": "false",
        "per_capita_consumption": "179 yuan",
        "address": "Floor 4, Jinhe International Building, No. 35, Shishan Road",
        "phone_number": "0512-66655909",
        "score": "4.6",
        "business_hours": "11: 00-24: 00, सोमवार से रविवार",
        "dishes": "पिज्जा"
    },
    {
        "name": "झिवेई जापानी रेस्तरां",
        "area": "सूज़ौ न्यू डिस्ट्रिक्ट",
        "cuisine": "Japanese",
        "pricerange": "थोड़ा महंगा",
        "metro_station": "false",
        "per_capita_consumption": "215 युआन",
        "address": "No.11, Huaihai Street",
        "phone_number": "0512-68618677",
        "score": "4.5",
        "business_hours": "11:00-14:00 16:00-22:00, Monday to Sunday",
        "dishes": "सैल्मन"
    },
    {
        "name": "डुओडुओ वांग हांगकांग स्टाइल टी रेस्तरां",
        "area": "सूज़ौ न्यू डिस्ट्रिक्ट",
        "cuisine": "Cantonese",
        "pricerange": "सस्ता",
        "metro_station": "false",
        "per_capita_consumption": "65 युआन",
        "address": "Floor 1, Wugong Lidu Commercial Street, No. 215, Shishan Road",
        "phone_number": "0512-68788933",
        "score": "4.4",
        "business_hours": "09:30-02:00, Monday to Sunday",
        "dishes": "समुद्री भोजन कंजी"
    },
    {
        "name": "Palsaik Korean +Q",
        "area": "सूज़ौ न्यू डिस्ट्रिक्ट",
        "cuisine": "Korean",
        "pricerange": "moderate",
        "metro_station": "true",
        "per_capita_consumption": "103 युआन",
        "address": "एमराल्ड पैदल यात्री स्ट्रीट, एमराल्ड सिटी, चांगजियांग रोड के दूसरे खंड पर बिल्डिंग 7 के 113, 1F",
        "phone_number": "0512-62919949",
        "score": "4.2",
        "business_hours": "10:00-22:00, सोमवार से रविवार",
        "dishes": "मसालेदार रैमेन"
    },
    {
        "name": "यांग के डंपलिंग",
        "area": "सूज़ौ न्यू डिस्ट्रिक्ट",
        "cuisine": "फ़ास्ट फ़ूड",
        "pricerange": "सस्ता",
        "metro_station": "true",
        "per_capita_consumption": "20 युआन",
        "address": "नंबर 211, चांगजियांग रोड, सूज़ौ न्यू डिस्ट्रिक्ट",
        "phone_number": "0512-68799751",
        "score": "4.5",
        "business_hours": "10:00-22:00, सोमवार से रविवार",
        "dishes": "पैन-फ्राइड झींगा बन"
    },
    {
        "name": "गुआन झी नॉर्थ",
        "area": "सूज़ौ न्यू डिस्ट्रिक्ट",
        "cuisine": "पूर्वोत्तर चीनी व्यंजन",
        "pricerange": "सस्ता",
        "metro_station": "false",
        "per_capita_consumption": "58 युआन",
        "address": "Floor 2, Aeon Mall, No. 19, Intercity Road",
        "phone_number": "0512-62917283",
        "score": "4.3",
        "business_hours": "10: 30-22: 00, सोमवार से रविवार",
        "dishes": "Bones in sauce"
    },
    {
        "name": "वुफांगझाई",
        "area": "Wujiang District",
        "cuisine": "फ़ास्ट फ़ूड",
        "pricerange": "सस्ता",
        "metro_station": "false",
        "per_capita_consumption": "33 युआन",
        "address": "Intersection of Liuhong Road and Luxiang South Road, Wujiang District",
        "phone_number": "0512-63575791",
        "score": "4.6",
        "business_hours": "07:30-20:30, Monday to Sunday",
        "dishes": "मांस और अंडे की जर्दी पकौड़ी"
    },
    {
        "name": "मास्टर यान",
        "area": "Wujiang District",
        "cuisine": "सिचुआन",
        "pricerange": "moderate",
        "metro_station": "false",
        "per_capita_consumption": "80 युआन",
        "address": "हेंग्गैंग रोड पर झोंगकिंगियन बुटीक के विपरीत",
        "phone_number": "0512-86876178",
        "score": "4.6",
        "business_hours": "10:00-21:00, Monday to Sunday",
        "dishes": "Sichuan Dandan Noodles"
    },
    {
        "name": "चोंगकिंग डी ज़ुआंग हॉट पॉट",
        "area": "Wujiang District",
        "cuisine": "हॉटपॉट",
        "pricerange": "थोड़ा महंगा",
        "metro_station": "false",
        "per_capita_consumption": "130 युआन",
        "address": "S3015, F3, Wanbao Plaza, Songling",
        "phone_number": "0512-88982265",
        "score": "4.5",
        "business_hours": "10:00-22:00, सोमवार से रविवार",
        "dishes": "झींगा गेंदों"
    },
    {
        "name": "टोंगली गृहनगर",
        "area": "Wujiang District",
        "cuisine": "Jiangsu-Zhejiang",
        "pricerange": "moderate",
        "metro_station": "false",
        "per_capita_consumption": "87 yuan",
        "address": "No. 318, Huanhu West Road, Tongli Town",
        "phone_number": "0512-63339777",
        "score": "4.5",
        "business_hours": "10:00-22:00, सोमवार से रविवार",
        "dishes": "White fish, silverfish and white shrimp of Taihu Lake"
    },
    {
        "name": "निउतांजिया बेन'जीई चारकोल बारबेक्यू",
        "area": "Wujiang District",
        "cuisine": "Japanese",
        "pricerange": "moderate",
        "metro_station": "false",
        "per_capita_consumption": "90 युआन",
        "address": "No. 1066, Lushen Avenue, Fenhu Economic Development Zone",
        "phone_number": "0512-63263679",
        "score": "4.6",
        "business_hours": "11:00-22:00, Monday to Sunday",
        "dishes": "Salmon sushi"
    },
    {
        "name": "झोउ झुआंग हुआ जियान तांग जी गेंग रेस्टोरेंट",
        "area": "कुनशान",
        "cuisine": "Jiangsu-Zhejiang",
        "pricerange": "moderate",
        "metro_station": "false",
        "per_capita_consumption": "98 yuan",
        "address": "नंबर 110 झोंगशी स्ट्रीट, झोउझुआंग टाउन के सुंदर स्थान से 10 मीटर उत्तर में",
        "phone_number": "138-1289-9961",
        "score": "4.5",
        "business_hours": "07:00-20:30, Monday to Sunday",
        "dishes": "तले हुए अंडे के साथ फ्राइड व्हाइटबेट"
    },
    {
        "name": "सिवांग रेस्टोरेंट",
        "area": "Changshu",
        "cuisine": "Jiangsu-Zhejiang",
        "pricerange": "सस्ता",
        "metro_station": "false",
        "per_capita_consumption": "60 yuan",
        "address": "क्षेत्र, लुवेइदांग रोड की पार्किंग स्थल के पास स्थित है",
        "phone_number": "0512-52507977",
        "score": "4.8",
        "business_hours": "08:00-20:00, Monday to Sunday",
        "dishes": "बालों वाला केकड़ा"
    }
]
